{"type":"FeatureCollection","name":"london_pois","features":[{"type":"Feature","properties":{"name":"Costa","category":"coffee","category_label":"Coffee","subcategory":"Cafe","source_type":"OpenStreetMap amenity=cafe","min_zoom":11.6,"priority":1},"geometry":{"type":"Point","coordinates":[-0.4129625,51.3981188]}},{"type":"Feature","properties":{"name":"Woburn Cafe","category":"coffee","category_label":"Coffee","subcategory":"Cafe","source_type":"OpenStreetMap amenity=cafe","min_zoom":11.6,"priority":1},"geometry":{"type":"Point","coordinates":[-0.1292505,51.5265807]}},{"type":"Feature","properties":{"name":"Cafe Angel","category":"coffee","category_label":"Coffee","subcategory":"Cafe","source_type":"OpenStreetMap amenity=cafe","min_zoom":11.6,"priority":1},"geometry":{"type":"Point","coordinates":[-0.1161125,51.5247641]}},{"type":"Feature","properties":{"name":"Jack's Cafe","category":"coffee","category_label":"Coffee","subcategory":"Cafe","source_type":"OpenStreetMap amenity=cafe","min_zoom":11.6,"priority":1},"geometry":{"type":"Point","coordinates":[-0.0724776,51.5509046]}},{"type":"Feature","properties":{"name":"Springfield Park Cafe","category":"coffee","category_label":"Coffee","subcategory":"Cafe","source_type":"OpenStreetMap amenity=cafe","min_zoom":11.6,"priority":1},"geometry":{"type":"Point","coordinates":[-0.0598633,51.5691513]}},{"type":"Feature","properties":{"name":"Perks and White","category":"coffee","category_label":"Coffee","subcategory":"Cafe","source_type":"OpenStreetMap amenity=cafe","min_zoom":11.6,"priority":1},"geometry":{"type":"Point","coordinates":[-0.1051929,51.4400001]}},{"type":"Feature","properties":{"name":"Caf\u00e9 Express","category":"coffee","category_label":"Coffee","subcategory":"Cafe","source_type":"OpenStreetMap amenity=cafe","min_zoom":11.6,"priority":1},"geometry":{"type":"Point","coordinates":[-0.3504501,51.5520625]}},{"type":"Feature","properties":{"name":"Caff\u00e8 Nero","category":"coffee","category_label":"Coffee","subcategory":"Cafe","source_type":"OpenStreetMap amenity=cafe","min_zoom":11.6,"priority":1},"geometry":{"type":"Point","coordinates":[-0.2166893,51.3578338]}},{"type":"Feature","properties":{"name":"Station Cafe","category":"coffee","category_label":"Coffee","subcategory":"Cafe","source_type":"OpenStreetMap amenity=cafe","min_zoom":11.6,"priority":1},"geometry":{"type":"Point","coordinates":[0.2342052,51.5937738]}},{"type":"Feature","properties":{"name":"Greedies","category":"coffee","category_label":"Coffee","subcategory":"Cafe","source_type":"OpenStreetMap amenity=cafe","min_zoom":11.6,"priority":1},"geometry":{"type":"Point","coordinates":[-0.3275195,51.4686299]}},{"type":"Feature","properties":{"name":"The Serpentine Lido Cafe","category":"coffee","category_label":"Coffee","subcategory":"Cafe","source_type":"OpenStreetMap amenity=cafe","min_zoom":11.6,"priority":1},"geometry":{"type":"Point","coordinates":[-0.1696555,51.5046688]}},{"type":"Feature","properties":{"name":"Starbucks","category":"coffee","category_label":"Coffee","subcategory":"Cafe","source_type":"OpenStreetMap amenity=cafe","min_zoom":11.6,"priority":1},"geometry":{"type":"Point","coordinates":[-0.1354995,51.4989916]}},{"type":"Feature","properties":{"name":"Buckingham Coffee Lounge","category":"coffee","category_label":"Coffee","subcategory":"Cafe","source_type":"OpenStreetMap amenity=cafe","min_zoom":11.6,"priority":1},"geometry":{"type":"Point","coordinates":[-0.1412257,51.4987752]}},{"type":"Feature","properties":{"name":"Victoria Plaza caf\u00e9","category":"coffee","category_label":"Coffee","subcategory":"Cafe","source_type":"OpenStreetMap amenity=cafe","min_zoom":11.6,"priority":1},"geometry":{"type":"Point","coordinates":[-0.2909155,51.4781383]}},{"type":"Feature","properties":{"name":"Beans & Beyond","category":"coffee","category_label":"Coffee","subcategory":"Cafe","source_type":"OpenStreetMap amenity=cafe","min_zoom":11.6,"priority":1},"geometry":{"type":"Point","coordinates":[-0.0752813,51.5246924]}},{"type":"Feature","properties":{"name":"Mellows Pavilion Cafe","category":"coffee","category_label":"Coffee","subcategory":"Cafe","source_type":"OpenStreetMap amenity=cafe","min_zoom":11.6,"priority":1},"geometry":{"type":"Point","coordinates":[-0.1332936,51.3602342]}},{"type":"Feature","properties":{"name":"Beehive Caf\u00e9","category":"coffee","category_label":"Coffee","subcategory":"Cafe","source_type":"OpenStreetMap amenity=cafe","min_zoom":11.6,"priority":1},"geometry":{"type":"Point","coordinates":[-0.1328371,51.3533278]}},{"type":"Feature","properties":{"name":"Kalendar","category":"coffee","category_label":"Coffee","subcategory":"Cafe","source_type":"OpenStreetMap amenity=cafe","min_zoom":11.6,"priority":1},"geometry":{"type":"Point","coordinates":[-0.1496786,51.5620412]}},{"type":"Feature","properties":{"name":"Turk's Head Cafe","category":"coffee","category_label":"Coffee","subcategory":"Cafe","source_type":"OpenStreetMap amenity=cafe","min_zoom":11.6,"priority":1},"geometry":{"type":"Point","coordinates":[-0.0612495,51.5042616]}},{"type":"Feature","properties":{"name":"Starbucks","category":"coffee","category_label":"Coffee","subcategory":"Cafe","source_type":"OpenStreetMap amenity=cafe","min_zoom":11.6,"priority":1},"geometry":{"type":"Point","coordinates":[-0.418779,51.4809488]}},{"type":"Feature","properties":{"name":"Starbucks","category":"coffee","category_label":"Coffee","subcategory":"Cafe","source_type":"OpenStreetMap amenity=cafe","min_zoom":11.6,"priority":1},"geometry":{"type":"Point","coordinates":[-0.4214855,51.3846304]}},{"type":"Feature","properties":{"name":"Starbucks","category":"coffee","category_label":"Coffee","subcategory":"Cafe","source_type":"OpenStreetMap amenity=cafe","min_zoom":11.6,"priority":1},"geometry":{"type":"Point","coordinates":[-0.1240474,51.5786546]}},{"type":"Feature","properties":{"name":"The Garrick","category":"coffee","category_label":"Coffee","subcategory":"Cafe","source_type":"OpenStreetMap amenity=cafe","min_zoom":11.6,"priority":1},"geometry":{"type":"Point","coordinates":[-0.1165232,51.5134807]}},{"type":"Feature","properties":{"name":"Swanley Park Cafeteria","category":"coffee","category_label":"Coffee","subcategory":"Cafe","source_type":"OpenStreetMap amenity=cafe","min_zoom":11.6,"priority":1},"geometry":{"type":"Point","coordinates":[0.1774463,51.4055142]}},{"type":"Feature","properties":{"name":"Millers Kitchen","category":"coffee","category_label":"Coffee","subcategory":"Cafe","source_type":"OpenStreetMap amenity=cafe","min_zoom":11.6,"priority":1},"geometry":{"type":"Point","coordinates":[-0.1623963,51.3549448]}},{"type":"Feature","properties":{"name":"Fleetdale Cafe","category":"coffee","category_label":"Coffee","subcategory":"Cafe","source_type":"OpenStreetMap amenity=cafe","min_zoom":11.6,"priority":1},"geometry":{"type":"Point","coordinates":[0.2450998,51.4351074]}},{"type":"Feature","properties":{"name":"Colicci Roehampton Gate","category":"coffee","category_label":"Coffee","subcategory":"Cafe","source_type":"OpenStreetMap amenity=cafe","min_zoom":11.6,"priority":1},"geometry":{"type":"Point","coordinates":[-0.2553944,51.4527114]}},{"type":"Feature","properties":{"name":"Caffe Nomma Italian","category":"coffee","category_label":"Coffee","subcategory":"Cafe","source_type":"OpenStreetMap amenity=cafe","min_zoom":11.6,"priority":1},"geometry":{"type":"Point","coordinates":[-0.0784709,51.5044528]}},{"type":"Feature","properties":{"name":"Neds Noodle Bar","category":"coffee","category_label":"Coffee","subcategory":"Cafe","source_type":"OpenStreetMap amenity=cafe","min_zoom":11.6,"priority":1},"geometry":{"type":"Point","coordinates":[-0.0837537,51.5270245]}},{"type":"Feature","properties":{"name":"The Orchard Cafe","category":"coffee","category_label":"Coffee","subcategory":"Cafe","source_type":"OpenStreetMap amenity=cafe","min_zoom":11.6,"priority":1},"geometry":{"type":"Point","coordinates":[-0.4561813,51.447244]}},{"type":"Feature","properties":{"name":"Riverside Terrace Cafe","category":"coffee","category_label":"Coffee","subcategory":"Cafe","source_type":"OpenStreetMap amenity=cafe","min_zoom":11.6,"priority":1},"geometry":{"type":"Point","coordinates":[-0.1171709,51.5059312]}},{"type":"Feature","properties":{"name":"The Brew House Caf\u00e9","category":"coffee","category_label":"Coffee","subcategory":"Cafe","source_type":"OpenStreetMap amenity=cafe","min_zoom":11.6,"priority":1},"geometry":{"type":"Point","coordinates":[-0.1667879,51.5717552]}},{"type":"Feature","properties":{"name":"Oaks Park Cafe","category":"coffee","category_label":"Coffee","subcategory":"Cafe","source_type":"OpenStreetMap amenity=cafe","min_zoom":11.6,"priority":1},"geometry":{"type":"Point","coordinates":[-0.17028,51.3355447]}},{"type":"Feature","properties":{"name":"City Brunch","category":"coffee","category_label":"Coffee","subcategory":"Cafe","source_type":"OpenStreetMap amenity=cafe","min_zoom":11.6,"priority":1},"geometry":{"type":"Point","coordinates":[-0.1354705,51.496539]}},{"type":"Feature","properties":{"name":"Cafe Nuvo","category":"coffee","category_label":"Coffee","subcategory":"Cafe","source_type":"OpenStreetMap amenity=cafe","min_zoom":11.6,"priority":1},"geometry":{"type":"Point","coordinates":[-0.1357931,51.4964968]}},{"type":"Feature","properties":{"name":"Costa","category":"coffee","category_label":"Coffee","subcategory":"Cafe","source_type":"OpenStreetMap amenity=cafe","min_zoom":11.6,"priority":1},"geometry":{"type":"Point","coordinates":[-0.1920131,51.489]}},{"type":"Feature","properties":{"name":"Caff\u00e8 du Coin","category":"coffee","category_label":"Coffee","subcategory":"Cafe","source_type":"OpenStreetMap amenity=cafe","min_zoom":11.6,"priority":1},"geometry":{"type":"Point","coordinates":[-0.190421,51.4899869]}},{"type":"Feature","properties":{"name":"Treat's","category":"coffee","category_label":"Coffee","subcategory":"Cafe","source_type":"OpenStreetMap amenity=cafe","min_zoom":11.6,"priority":1},"geometry":{"type":"Point","coordinates":[-0.1444353,51.4931224]}},{"type":"Feature","properties":{"name":"Pembroke Lodge","category":"coffee","category_label":"Coffee","subcategory":"Cafe","source_type":"OpenStreetMap amenity=cafe","min_zoom":11.6,"priority":1},"geometry":{"type":"Point","coordinates":[-0.294468,51.4424027]}},{"type":"Feature","properties":{"name":"George's Cafe","category":"coffee","category_label":"Coffee","subcategory":"Cafe","source_type":"OpenStreetMap amenity=cafe","min_zoom":11.6,"priority":1},"geometry":{"type":"Point","coordinates":[-0.1739087,51.3846322]}},{"type":"Feature","properties":{"name":"Cafe Donatella","category":"coffee","category_label":"Coffee","subcategory":"Cafe","source_type":"OpenStreetMap amenity=cafe","min_zoom":11.6,"priority":1},"geometry":{"type":"Point","coordinates":[-0.0603671,51.5154204]}},{"type":"Feature","properties":{"name":"The Courts Caf\u00e9 at The Regent's Park","category":"coffee","category_label":"Coffee","subcategory":"Cafe","source_type":"OpenStreetMap amenity=cafe","min_zoom":11.6,"priority":1},"geometry":{"type":"Point","coordinates":[-0.1538118,51.525503]}},{"type":"Feature","properties":{"name":"Tea Terrace","category":"coffee","category_label":"Coffee","subcategory":"Cafe","source_type":"OpenStreetMap amenity=cafe","min_zoom":11.6,"priority":1},"geometry":{"type":"Point","coordinates":[-0.1589365,51.4804805]}},{"type":"Feature","properties":{"name":"Archway Cafe","category":"coffee","category_label":"Coffee","subcategory":"Cafe","source_type":"OpenStreetMap amenity=cafe","min_zoom":11.6,"priority":1},"geometry":{"type":"Point","coordinates":[-0.0736417,51.4991305]}},{"type":"Feature","properties":{"name":"Twists Sandwich Bar","category":"coffee","category_label":"Coffee","subcategory":"Cafe","source_type":"OpenStreetMap amenity=cafe","min_zoom":11.6,"priority":1},"geometry":{"type":"Point","coordinates":[-0.0914286,51.5005539]}},{"type":"Feature","properties":{"name":"Florentine","category":"coffee","category_label":"Coffee","subcategory":"Cafe","source_type":"OpenStreetMap amenity=cafe","min_zoom":11.6,"priority":1},"geometry":{"type":"Point","coordinates":[-0.1044291,51.4363873]}},{"type":"Feature","properties":{"name":"Black Cat Cafe","category":"coffee","category_label":"Coffee","subcategory":"Cafe","source_type":"OpenStreetMap amenity=cafe","min_zoom":11.6,"priority":1},"geometry":{"type":"Point","coordinates":[-0.0555368,51.5513745]}},{"type":"Feature","properties":{"name":"Caf\u00e9 on the Hill","category":"coffee","category_label":"Coffee","subcategory":"Cafe","source_type":"OpenStreetMap amenity=cafe","min_zoom":11.6,"priority":1},"geometry":{"type":"Point","coordinates":[-0.1193419,51.4548973]}},{"type":"Feature","properties":{"name":"Caf\u00e9 Tana","category":"coffee","category_label":"Coffee","subcategory":"Cafe","source_type":"OpenStreetMap amenity=cafe","min_zoom":11.6,"priority":1},"geometry":{"type":"Point","coordinates":[-0.1199703,51.4547019]}},{"type":"Feature","properties":{"name":"Wash House","category":"coffee","category_label":"Coffee","subcategory":"Cafe","source_type":"OpenStreetMap amenity=cafe","min_zoom":11.6,"priority":1},"geometry":{"type":"Point","coordinates":[-0.1295433,51.4973427]}},{"type":"Feature","properties":{"name":"The Grove Caf\u00e9","category":"coffee","category_label":"Coffee","subcategory":"Cafe","source_type":"OpenStreetMap amenity=cafe","min_zoom":11.6,"priority":1},"geometry":{"type":"Point","coordinates":[-0.1374227,51.5920863]}},{"type":"Feature","properties":{"name":"Starbucks","category":"coffee","category_label":"Coffee","subcategory":"Cafe","source_type":"OpenStreetMap amenity=cafe","min_zoom":11.6,"priority":1},"geometry":{"type":"Point","coordinates":[-0.1227884,51.507446]}},{"type":"Feature","properties":{"name":"Nero Express","category":"coffee","category_label":"Coffee","subcategory":"Cafe","source_type":"OpenStreetMap amenity=cafe","min_zoom":11.6,"priority":1},"geometry":{"type":"Point","coordinates":[-0.3044196,51.3923739]}},{"type":"Feature","properties":{"name":"Caff\u00e8 Nero","category":"coffee","category_label":"Coffee","subcategory":"Cafe","source_type":"OpenStreetMap amenity=cafe","min_zoom":11.6,"priority":1},"geometry":{"type":"Point","coordinates":[-0.1037828,51.5363861]}},{"type":"Feature","properties":{"name":"Dolce Coffee","category":"coffee","category_label":"Coffee","subcategory":"Cafe","source_type":"OpenStreetMap amenity=cafe","min_zoom":11.6,"priority":1},"geometry":{"type":"Point","coordinates":[-0.0998346,51.5375804]}},{"type":"Feature","properties":{"name":"Gloucester Road Cafe","category":"coffee","category_label":"Coffee","subcategory":"Cafe","source_type":"OpenStreetMap amenity=cafe","min_zoom":11.6,"priority":1},"geometry":{"type":"Point","coordinates":[-0.1801198,51.491428]}},{"type":"Feature","properties":{"name":"Pear Tree Cafe","category":"coffee","category_label":"Coffee","subcategory":"Cafe","source_type":"OpenStreetMap amenity=cafe","min_zoom":11.6,"priority":1},"geometry":{"type":"Point","coordinates":[-0.1486927,51.4583633]}},{"type":"Feature","properties":{"name":"Sabor Mineiro","category":"coffee","category_label":"Coffee","subcategory":"Cafe","source_type":"OpenStreetMap amenity=cafe","min_zoom":11.6,"priority":1},"geometry":{"type":"Point","coordinates":[-0.2463565,51.532967]}},{"type":"Feature","properties":{"name":"Pasta Cafe","category":"coffee","category_label":"Coffee","subcategory":"Cafe","source_type":"OpenStreetMap amenity=cafe","min_zoom":11.6,"priority":1},"geometry":{"type":"Point","coordinates":[-0.2644694,51.534367]}},{"type":"Feature","properties":{"name":"Ace Cafe","category":"coffee","category_label":"Coffee","subcategory":"Cafe","source_type":"OpenStreetMap amenity=cafe","min_zoom":11.6,"priority":1},"geometry":{"type":"Point","coordinates":[-0.2776857,51.5412726]}},{"type":"Feature","properties":{"name":"Jack's Cabin Cafe","category":"coffee","category_label":"Coffee","subcategory":"Cafe","source_type":"OpenStreetMap amenity=cafe","min_zoom":11.6,"priority":1},"geometry":{"type":"Point","coordinates":[-0.2617001,51.5341765]}},{"type":"Feature","properties":{"name":"Saponara","category":"coffee","category_label":"Coffee","subcategory":"Cafe","source_type":"OpenStreetMap amenity=cafe","min_zoom":11.6,"priority":1},"geometry":{"type":"Point","coordinates":[-0.0962864,51.5369333]}},{"type":"Feature","properties":{"name":"Caffe Deniro","category":"coffee","category_label":"Coffee","subcategory":"Cafe","source_type":"OpenStreetMap amenity=cafe","min_zoom":11.6,"priority":1},"geometry":{"type":"Point","coordinates":[-0.1037432,51.5009039]}},{"type":"Feature","properties":{"name":"Masters","category":"coffee","category_label":"Coffee","subcategory":"Cafe","source_type":"OpenStreetMap amenity=cafe","min_zoom":11.6,"priority":1},"geometry":{"type":"Point","coordinates":[-0.1049059,51.5012746]}},{"type":"Feature","properties":{"name":"Sunrise Cafe","category":"coffee","category_label":"Coffee","subcategory":"Cafe","source_type":"OpenStreetMap amenity=cafe","min_zoom":11.6,"priority":1},"geometry":{"type":"Point","coordinates":[-0.0426709,51.3988936]}},{"type":"Feature","properties":{"name":"Starbucks","category":"coffee","category_label":"Coffee","subcategory":"Cafe","source_type":"OpenStreetMap amenity=cafe","min_zoom":11.6,"priority":1},"geometry":{"type":"Point","coordinates":[-0.1064336,51.5322618]}},{"type":"Feature","properties":{"name":"The Shepherdess","category":"coffee","category_label":"Coffee","subcategory":"Cafe","source_type":"OpenStreetMap amenity=cafe","min_zoom":11.6,"priority":1},"geometry":{"type":"Point","coordinates":[-0.0916174,51.5283695]}},{"type":"Feature","properties":{"name":"Costa","category":"coffee","category_label":"Coffee","subcategory":"Cafe","source_type":"OpenStreetMap amenity=cafe","min_zoom":11.6,"priority":1},"geometry":{"type":"Point","coordinates":[-0.1256046,51.5140415]}},{"type":"Feature","properties":{"name":"Taxi Driver's Cafe","category":"coffee","category_label":"Coffee","subcategory":"Cafe","source_type":"OpenStreetMap amenity=cafe","min_zoom":11.6,"priority":1},"geometry":{"type":"Point","coordinates":[-0.1979637,51.5099573]}},{"type":"Feature","properties":{"name":"Caff\u00e9 Pronto Grill Bar","category":"coffee","category_label":"Coffee","subcategory":"Cafe","source_type":"OpenStreetMap amenity=cafe","min_zoom":11.6,"priority":1},"geometry":{"type":"Point","coordinates":[-0.1335105,51.4966438]}},{"type":"Feature","properties":{"name":"Tres Marias","category":"coffee","category_label":"Coffee","subcategory":"Cafe","source_type":"OpenStreetMap amenity=cafe","min_zoom":11.6,"priority":1},"geometry":{"type":"Point","coordinates":[0.009934,51.5550326]}},{"type":"Feature","properties":{"name":"The Doll's House on the Hill","category":"coffee","category_label":"Coffee","subcategory":"Cafe","source_type":"OpenStreetMap amenity=cafe","min_zoom":11.6,"priority":1},"geometry":{"type":"Point","coordinates":[-0.3385104,51.5719537]}},{"type":"Feature","properties":{"name":"Battels","category":"coffee","category_label":"Coffee","subcategory":"Cafe","source_type":"OpenStreetMap amenity=cafe","min_zoom":11.6,"priority":1},"geometry":{"type":"Point","coordinates":[-0.3388506,51.5714911]}},{"type":"Feature","properties":{"name":"Cafe Silam","category":"coffee","category_label":"Coffee","subcategory":"Cafe","source_type":"OpenStreetMap amenity=cafe","min_zoom":11.6,"priority":1},"geometry":{"type":"Point","coordinates":[-0.0933809,51.4842429]}},{"type":"Feature","properties":{"name":"Echo Expresso","category":"coffee","category_label":"Coffee","subcategory":"Cafe","source_type":"OpenStreetMap amenity=cafe","min_zoom":11.6,"priority":1},"geometry":{"type":"Point","coordinates":[-0.0935555,51.4843489]}},{"type":"Feature","properties":{"name":"Filtr","category":"coffee","category_label":"Coffee","subcategory":"Cafe","source_type":"OpenStreetMap amenity=cafe","min_zoom":11.6,"priority":1},"geometry":{"type":"Point","coordinates":[-0.0881901,51.2851648]}},{"type":"Feature","properties":{"name":"Pavillion Cafe","category":"coffee","category_label":"Coffee","subcategory":"Cafe","source_type":"OpenStreetMap amenity=cafe","min_zoom":11.6,"priority":1},"geometry":{"type":"Point","coordinates":[-0.1498519,51.5823256]}},{"type":"Feature","properties":{"name":"Costa","category":"coffee","category_label":"Coffee","subcategory":"Cafe","source_type":"OpenStreetMap amenity=cafe","min_zoom":11.6,"priority":1},"geometry":{"type":"Point","coordinates":[-0.1037287,51.590466]}},{"type":"Feature","properties":{"name":"Amici","category":"coffee","category_label":"Coffee","subcategory":"Cafe","source_type":"OpenStreetMap amenity=cafe","min_zoom":11.6,"priority":1},"geometry":{"type":"Point","coordinates":[-0.1035031,51.5465143]}},{"type":"Feature","properties":{"name":"The Steward's Room","category":"coffee","category_label":"Coffee","subcategory":"Cafe","source_type":"OpenStreetMap amenity=cafe","min_zoom":11.6,"priority":1},"geometry":{"type":"Point","coordinates":[-0.16715,51.571476]}},{"type":"Feature","properties":{"name":"Sandwich Street Kitchen","category":"coffee","category_label":"Coffee","subcategory":"Cafe","source_type":"OpenStreetMap amenity=cafe","min_zoom":11.6,"priority":1},"geometry":{"type":"Point","coordinates":[-0.1262783,51.5277186]}},{"type":"Feature","properties":{"name":"Tocca","category":"coffee","category_label":"Coffee","subcategory":"Cafe","source_type":"OpenStreetMap amenity=cafe","min_zoom":11.6,"priority":1},"geometry":{"type":"Point","coordinates":[-0.116985,51.5409182]}},{"type":"Feature","properties":{"name":"La Primavera","category":"coffee","category_label":"Coffee","subcategory":"Cafe","source_type":"OpenStreetMap amenity=cafe","min_zoom":11.6,"priority":1},"geometry":{"type":"Point","coordinates":[-0.1174779,51.5422743]}},{"type":"Feature","properties":{"name":"Caffeine","category":"coffee","category_label":"Coffee","subcategory":"Cafe","source_type":"OpenStreetMap amenity=cafe","min_zoom":11.6,"priority":1},"geometry":{"type":"Point","coordinates":[-0.1176996,51.5436684]}},{"type":"Feature","properties":{"name":"The Breakout","category":"coffee","category_label":"Coffee","subcategory":"Cafe","source_type":"OpenStreetMap amenity=cafe","min_zoom":11.6,"priority":1},"geometry":{"type":"Point","coordinates":[-0.117926,51.5449526]}},{"type":"Feature","properties":{"name":"Costa","category":"coffee","category_label":"Coffee","subcategory":"Cafe","source_type":"OpenStreetMap amenity=cafe","min_zoom":11.6,"priority":1},"geometry":{"type":"Point","coordinates":[0.0534637,51.5345549]}},{"type":"Feature","properties":{"name":"Basement Cafe","category":"coffee","category_label":"Coffee","subcategory":"Cafe","source_type":"OpenStreetMap amenity=cafe","min_zoom":11.6,"priority":1},"geometry":{"type":"Point","coordinates":[-0.08411,51.5236963]}},{"type":"Feature","properties":{"name":"Cafe Olive","category":"coffee","category_label":"Coffee","subcategory":"Cafe","source_type":"OpenStreetMap amenity=cafe","min_zoom":11.6,"priority":1},"geometry":{"type":"Point","coordinates":[-0.1112097,51.532949]}},{"type":"Feature","properties":{"name":"Wagon Cafe","category":"coffee","category_label":"Coffee","subcategory":"Cafe","source_type":"OpenStreetMap amenity=cafe","min_zoom":11.6,"priority":1},"geometry":{"type":"Point","coordinates":[-0.1045938,51.5532287]}},{"type":"Feature","properties":{"name":"Little Wonder Cafe","category":"coffee","category_label":"Coffee","subcategory":"Cafe","source_type":"OpenStreetMap amenity=cafe","min_zoom":11.6,"priority":1},"geometry":{"type":"Point","coordinates":[-0.1105932,51.5539551]}},{"type":"Feature","properties":{"name":"Oasis in the Park","category":"coffee","category_label":"Coffee","subcategory":"Cafe","source_type":"OpenStreetMap amenity=cafe","min_zoom":11.6,"priority":1},"geometry":{"type":"Point","coordinates":[-0.09959,51.5514471]}},{"type":"Feature","properties":{"name":"Costa","category":"coffee","category_label":"Coffee","subcategory":"Cafe","source_type":"OpenStreetMap amenity=cafe","min_zoom":11.6,"priority":1},"geometry":{"type":"Point","coordinates":[-0.111853,51.5156884]}},{"type":"Feature","properties":{"name":"Caff\u00e8 Nero","category":"coffee","category_label":"Coffee","subcategory":"Cafe","source_type":"OpenStreetMap amenity=cafe","min_zoom":11.6,"priority":1},"geometry":{"type":"Point","coordinates":[-0.1193869,51.5178134]}},{"type":"Feature","properties":{"name":"Costa","category":"coffee","category_label":"Coffee","subcategory":"Cafe","source_type":"OpenStreetMap amenity=cafe","min_zoom":11.6,"priority":1},"geometry":{"type":"Point","coordinates":[-0.1200835,51.5175712]}},{"type":"Feature","properties":{"name":"Guido's","category":"coffee","category_label":"Coffee","subcategory":"Cafe","source_type":"OpenStreetMap amenity=cafe","min_zoom":11.6,"priority":1},"geometry":{"type":"Point","coordinates":[-0.1190342,51.5160246]}},{"type":"Feature","properties":{"name":"Caff\u00e8 Nero","category":"coffee","category_label":"Coffee","subcategory":"Cafe","source_type":"OpenStreetMap amenity=cafe","min_zoom":11.6,"priority":1},"geometry":{"type":"Point","coordinates":[-0.119735,51.516089]}},{"type":"Feature","properties":{"name":"Espresso House","category":"coffee","category_label":"Coffee","subcategory":"Cafe","source_type":"OpenStreetMap amenity=cafe","min_zoom":11.6,"priority":1},"geometry":{"type":"Point","coordinates":[-0.120913,51.51825]}},{"type":"Feature","properties":{"name":"Sawyer & Gray","category":"coffee","category_label":"Coffee","subcategory":"Cafe","source_type":"OpenStreetMap amenity=cafe","min_zoom":11.6,"priority":1},"geometry":{"type":"Point","coordinates":[-0.1011388,51.5462673]}},{"type":"Feature","properties":{"name":"Friendly Cafe","category":"coffee","category_label":"Coffee","subcategory":"Cafe","source_type":"OpenStreetMap amenity=cafe","min_zoom":11.6,"priority":1},"geometry":{"type":"Point","coordinates":[0.0597155,51.5338257]}},{"type":"Feature","properties":{"name":"Gadz","category":"coffee","category_label":"Coffee","subcategory":"Cafe","source_type":"OpenStreetMap amenity=cafe","min_zoom":11.6,"priority":1},"geometry":{"type":"Point","coordinates":[-0.1077767,51.5655171]}},{"type":"Feature","properties":{"name":"The Arch Cafe","category":"coffee","category_label":"Coffee","subcategory":"Cafe","source_type":"OpenStreetMap amenity=cafe","min_zoom":11.6,"priority":1},"geometry":{"type":"Point","coordinates":[-0.1067122,51.5657342]}},{"type":"Feature","properties":{"name":"One Way Cafe","category":"coffee","category_label":"Coffee","subcategory":"Cafe","source_type":"OpenStreetMap amenity=cafe","min_zoom":11.6,"priority":1},"geometry":{"type":"Point","coordinates":[-0.1124838,51.5613167]}},{"type":"Feature","properties":{"name":"Olive","category":"coffee","category_label":"Coffee","subcategory":"Cafe","source_type":"OpenStreetMap amenity=cafe","min_zoom":11.6,"priority":1},"geometry":{"type":"Point","coordinates":[-0.2104769,51.4775336]}},{"type":"Feature","properties":{"name":"Cafe Plum","category":"coffee","category_label":"Coffee","subcategory":"Cafe","source_type":"OpenStreetMap amenity=cafe","min_zoom":11.6,"priority":1},"geometry":{"type":"Point","coordinates":[-0.2113074,51.4786408]}},{"type":"Feature","properties":{"name":"One root bakery","category":"coffee","category_label":"Coffee","subcategory":"Cafe","source_type":"OpenStreetMap amenity=cafe","min_zoom":11.6,"priority":1},"geometry":{"type":"Point","coordinates":[-0.0982362,51.5560511]}},{"type":"Feature","properties":{"name":"Down House Tearoom","category":"coffee","category_label":"Coffee","subcategory":"Cafe","source_type":"OpenStreetMap amenity=cafe","min_zoom":11.6,"priority":1},"geometry":{"type":"Point","coordinates":[0.0535218,51.3313237]}},{"type":"Feature","properties":{"name":"The Corner Cafe","category":"coffee","category_label":"Coffee","subcategory":"Cafe","source_type":"OpenStreetMap amenity=cafe","min_zoom":11.6,"priority":1},"geometry":{"type":"Point","coordinates":[-0.1152396,51.4957752]}},{"type":"Feature","properties":{"name":"Jen Tea","category":"coffee","category_label":"Coffee","subcategory":"Cafe","source_type":"OpenStreetMap amenity=cafe","min_zoom":11.6,"priority":1},"geometry":{"type":"Point","coordinates":[-0.0776879,51.5181847]}},{"type":"Feature","properties":{"name":"BBH","category":"coffee","category_label":"Coffee","subcategory":"Cafe","source_type":"OpenStreetMap amenity=cafe","min_zoom":11.6,"priority":1},"geometry":{"type":"Point","coordinates":[-0.1064898,51.5479589]}},{"type":"Feature","properties":{"name":"The Hope","category":"coffee","category_label":"Coffee","subcategory":"Cafe","source_type":"OpenStreetMap amenity=cafe","min_zoom":11.6,"priority":1},"geometry":{"type":"Point","coordinates":[-0.1069032,51.5482419]}},{"type":"Feature","properties":{"name":"Vagabond N7","category":"coffee","category_label":"Coffee","subcategory":"Cafe","source_type":"OpenStreetMap amenity=cafe","min_zoom":11.6,"priority":1},"geometry":{"type":"Point","coordinates":[-0.1067398,51.5481202]}},{"type":"Feature","properties":{"name":"High Ground","category":"coffee","category_label":"Coffee","subcategory":"Cafe","source_type":"OpenStreetMap amenity=cafe","min_zoom":11.6,"priority":1},"geometry":{"type":"Point","coordinates":[-0.1022652,51.5398018]}},{"type":"Feature","properties":{"name":"Tea For u","category":"coffee","category_label":"Coffee","subcategory":"Cafe","source_type":"OpenStreetMap amenity=cafe","min_zoom":11.6,"priority":1},"geometry":{"type":"Point","coordinates":[-0.1054575,51.5343649]}},{"type":"Feature","properties":{"name":"Ding Tea","category":"coffee","category_label":"Coffee","subcategory":"Cafe","source_type":"OpenStreetMap amenity=cafe","min_zoom":11.6,"priority":1},"geometry":{"type":"Point","coordinates":[-0.1053506,51.5344524]}},{"type":"Feature","properties":{"name":"Caff\u00e8 Concerto","category":"coffee","category_label":"Coffee","subcategory":"Cafe","source_type":"OpenStreetMap amenity=cafe","min_zoom":11.6,"priority":1},"geometry":{"type":"Point","coordinates":[-0.1327974,51.5114642]}},{"type":"Feature","properties":{"name":"Joe the Juice","category":"coffee","category_label":"Coffee","subcategory":"Cafe","source_type":"OpenStreetMap amenity=cafe","min_zoom":11.6,"priority":1},"geometry":{"type":"Point","coordinates":[-0.1021434,51.5391651]}},{"type":"Feature","properties":{"name":"Chameleon","category":"coffee","category_label":"Coffee","subcategory":"Cafe","source_type":"OpenStreetMap amenity=cafe","min_zoom":11.6,"priority":1},"geometry":{"type":"Point","coordinates":[-0.1018052,51.5395529]}},{"type":"Feature","properties":{"name":"Deti's Deli Cafe","category":"coffee","category_label":"Coffee","subcategory":"Cafe","source_type":"OpenStreetMap amenity=cafe","min_zoom":11.6,"priority":1},"geometry":{"type":"Point","coordinates":[-0.1224538,51.5677613]}},{"type":"Feature","properties":{"name":"Hamlet Cafe","category":"coffee","category_label":"Coffee","subcategory":"Cafe","source_type":"OpenStreetMap amenity=cafe","min_zoom":11.6,"priority":1},"geometry":{"type":"Point","coordinates":[-0.1223257,51.5672097]}},{"type":"Feature","properties":{"name":"Morsi & Co.","category":"coffee","category_label":"Coffee","subcategory":"Cafe","source_type":"OpenStreetMap amenity=cafe","min_zoom":11.6,"priority":1},"geometry":{"type":"Point","coordinates":[-0.1082337,51.549276]}},{"type":"Feature","properties":{"name":"Vongs Kitchen","category":"coffee","category_label":"Coffee","subcategory":"Cafe","source_type":"OpenStreetMap amenity=cafe","min_zoom":11.6,"priority":1},"geometry":{"type":"Point","coordinates":[0.0224192,51.5229959]}},{"type":"Feature","properties":{"name":"Britannia","category":"coffee","category_label":"Coffee","subcategory":"Cafe","source_type":"OpenStreetMap amenity=cafe","min_zoom":11.6,"priority":1},"geometry":{"type":"Point","coordinates":[0.021972,51.5222935]}},{"type":"Feature","properties":{"name":"Caff\u00e8 Nero","category":"coffee","category_label":"Coffee","subcategory":"Cafe","source_type":"OpenStreetMap amenity=cafe","min_zoom":11.6,"priority":1},"geometry":{"type":"Point","coordinates":[-0.4706484,51.6391325]}},{"type":"Feature","properties":{"name":"Temptations","category":"coffee","category_label":"Coffee","subcategory":"Cafe","source_type":"OpenStreetMap amenity=cafe","min_zoom":11.6,"priority":1},"geometry":{"type":"Point","coordinates":[-0.1042104,51.5465873]}},{"type":"Feature","properties":{"name":"Master Chef Cafe","category":"coffee","category_label":"Coffee","subcategory":"Cafe","source_type":"OpenStreetMap amenity=cafe","min_zoom":11.6,"priority":1},"geometry":{"type":"Point","coordinates":[-0.108437,51.549446]}},{"type":"Feature","properties":{"name":"Le P\u00e9ch\u00e9 Mignon","category":"coffee","category_label":"Coffee","subcategory":"Cafe","source_type":"OpenStreetMap amenity=cafe","min_zoom":11.6,"priority":1},"geometry":{"type":"Point","coordinates":[-0.1078,51.5500543]}},{"type":"Feature","properties":{"name":"314","category":"coffee","category_label":"Coffee","subcategory":"Cafe","source_type":"OpenStreetMap amenity=cafe","min_zoom":11.6,"priority":1},"geometry":{"type":"Point","coordinates":[-0.1023635,51.5462478]}},{"type":"Feature","properties":{"name":"Cafe Vertige","category":"coffee","category_label":"Coffee","subcategory":"Cafe","source_type":"OpenStreetMap amenity=cafe","min_zoom":11.6,"priority":1},"geometry":{"type":"Point","coordinates":[-0.1019576,51.5459051]}},{"type":"Feature","properties":{"name":"Urban Caf\u00e9 and Bistro","category":"coffee","category_label":"Coffee","subcategory":"Cafe","source_type":"OpenStreetMap amenity=cafe","min_zoom":11.6,"priority":1},"geometry":{"type":"Point","coordinates":[-0.1016413,51.5460255]}},{"type":"Feature","properties":{"name":"Chaplins Deli","category":"coffee","category_label":"Coffee","subcategory":"Cafe","source_type":"OpenStreetMap amenity=cafe","min_zoom":11.6,"priority":1},"geometry":{"type":"Point","coordinates":[-0.0790785,51.5147588]}},{"type":"Feature","properties":{"name":"Stop Over","category":"coffee","category_label":"Coffee","subcategory":"Cafe","source_type":"OpenStreetMap amenity=cafe","min_zoom":11.6,"priority":1},"geometry":{"type":"Point","coordinates":[-0.0728654,51.5654055]}},{"type":"Feature","properties":{"name":"Leo's Cafe","category":"coffee","category_label":"Coffee","subcategory":"Cafe","source_type":"OpenStreetMap amenity=cafe","min_zoom":11.6,"priority":1},"geometry":{"type":"Point","coordinates":[-0.0733518,51.5623969]}},{"type":"Feature","properties":{"name":"Moio","category":"coffee","category_label":"Coffee","subcategory":"Cafe","source_type":"OpenStreetMap amenity=cafe","min_zoom":11.6,"priority":1},"geometry":{"type":"Point","coordinates":[-0.073451,51.5620251]}},{"type":"Feature","properties":{"name":"Coffee Break & Restaurant","category":"coffee","category_label":"Coffee","subcategory":"Cafe","source_type":"OpenStreetMap amenity=cafe","min_zoom":11.6,"priority":1},"geometry":{"type":"Point","coordinates":[-0.073915,51.5595994]}},{"type":"Feature","properties":{"name":"The Poetry Cafe","category":"coffee","category_label":"Coffee","subcategory":"Cafe","source_type":"OpenStreetMap amenity=cafe","min_zoom":11.6,"priority":1},"geometry":{"type":"Point","coordinates":[-0.1240197,51.5149955]}},{"type":"Feature","properties":{"name":"Bar Italia","category":"coffee","category_label":"Coffee","subcategory":"Cafe","source_type":"OpenStreetMap amenity=cafe","min_zoom":11.6,"priority":1},"geometry":{"type":"Point","coordinates":[-0.1312352,51.513421]}},{"type":"Feature","properties":{"name":"Banh Mi Etc","category":"coffee","category_label":"Coffee","subcategory":"Cafe","source_type":"OpenStreetMap amenity=cafe","min_zoom":11.6,"priority":1},"geometry":{"type":"Point","coordinates":[-0.0754513,51.5620603]}},{"type":"Feature","properties":{"name":"Liv's Telecafe","category":"coffee","category_label":"Coffee","subcategory":"Cafe","source_type":"OpenStreetMap amenity=cafe","min_zoom":11.6,"priority":1},"geometry":{"type":"Point","coordinates":[-0.3403162,51.4445927]}},{"type":"Feature","properties":{"name":"Starbucks","category":"coffee","category_label":"Coffee","subcategory":"Cafe","source_type":"OpenStreetMap amenity=cafe","min_zoom":11.6,"priority":1},"geometry":{"type":"Point","coordinates":[-0.0879786,51.5261978]}},{"type":"Feature","properties":{"name":"Ponto de Encontro","category":"coffee","category_label":"Coffee","subcategory":"Cafe","source_type":"OpenStreetMap amenity=cafe","min_zoom":11.6,"priority":1},"geometry":{"type":"Point","coordinates":[-0.13046,51.476668]}},{"type":"Feature","properties":{"name":"Berlengas","category":"coffee","category_label":"Coffee","subcategory":"Cafe","source_type":"OpenStreetMap amenity=cafe","min_zoom":11.6,"priority":1},"geometry":{"type":"Point","coordinates":[-0.13042,51.476732]}},{"type":"Feature","properties":{"name":"Chinese Pantry","category":"coffee","category_label":"Coffee","subcategory":"Cafe","source_type":"OpenStreetMap amenity=cafe","min_zoom":11.6,"priority":1},"geometry":{"type":"Point","coordinates":[-0.1324402,51.4746123]}},{"type":"Feature","properties":{"name":"Os Golfinhos","category":"coffee","category_label":"Coffee","subcategory":"Cafe","source_type":"OpenStreetMap amenity=cafe","min_zoom":11.6,"priority":1},"geometry":{"type":"Point","coordinates":[-0.135588,51.471749]}},{"type":"Feature","properties":{"name":"Solneve Cafe","category":"coffee","category_label":"Coffee","subcategory":"Cafe","source_type":"OpenStreetMap amenity=cafe","min_zoom":11.6,"priority":1},"geometry":{"type":"Point","coordinates":[-0.1382787,51.4706364]}},{"type":"Feature","properties":{"name":"Savoy Cafe","category":"coffee","category_label":"Coffee","subcategory":"Cafe","source_type":"OpenStreetMap amenity=cafe","min_zoom":11.6,"priority":1},"geometry":{"type":"Point","coordinates":[-0.1382967,51.4708182]}},{"type":"Feature","properties":{"name":"Uncle Tom's Cabin","category":"coffee","category_label":"Coffee","subcategory":"Cafe","source_type":"OpenStreetMap amenity=cafe","min_zoom":11.6,"priority":1},"geometry":{"type":"Point","coordinates":[-0.1390395,51.4704996]}},{"type":"Feature","properties":{"name":"Cafe N5","category":"coffee","category_label":"Coffee","subcategory":"Cafe","source_type":"OpenStreetMap amenity=cafe","min_zoom":11.6,"priority":1},"geometry":{"type":"Point","coordinates":[-0.098027,51.5574006]}},{"type":"Feature","properties":{"name":"Franks","category":"coffee","category_label":"Coffee","subcategory":"Cafe","source_type":"OpenStreetMap amenity=cafe","min_zoom":11.6,"priority":1},"geometry":{"type":"Point","coordinates":[-0.0979895,51.5573451]}},{"type":"Feature","properties":{"name":"English Rose","category":"coffee","category_label":"Coffee","subcategory":"Cafe","source_type":"OpenStreetMap amenity=cafe","min_zoom":11.6,"priority":1},"geometry":{"type":"Point","coordinates":[-0.1444736,51.4980972]}},{"type":"Feature","properties":{"name":"Le Signore","category":"coffee","category_label":"Coffee","subcategory":"Cafe","source_type":"OpenStreetMap amenity=cafe","min_zoom":11.6,"priority":1},"geometry":{"type":"Point","coordinates":[-0.1428822,51.4990311]}},{"type":"Feature","properties":{"name":"Ravello","category":"coffee","category_label":"Coffee","subcategory":"Cafe","source_type":"OpenStreetMap amenity=cafe","min_zoom":11.6,"priority":1},"geometry":{"type":"Point","coordinates":[-0.1270355,51.4949639]}},{"type":"Feature","properties":{"name":"Starbucks","category":"coffee","category_label":"Coffee","subcategory":"Cafe","source_type":"OpenStreetMap amenity=cafe","min_zoom":11.6,"priority":1},"geometry":{"type":"Point","coordinates":[-0.1281271,51.5252013]}},{"type":"Feature","properties":{"name":"Starbucks","category":"coffee","category_label":"Coffee","subcategory":"Cafe","source_type":"OpenStreetMap amenity=cafe","min_zoom":11.6,"priority":1},"geometry":{"type":"Point","coordinates":[-0.129274,51.516674]}},{"type":"Feature","properties":{"name":"Caff\u00e8 Nero","category":"coffee","category_label":"Coffee","subcategory":"Cafe","source_type":"OpenStreetMap amenity=cafe","min_zoom":11.6,"priority":1},"geometry":{"type":"Point","coordinates":[-0.027644,51.4075687]}},{"type":"Feature","properties":{"name":"Palms","category":"coffee","category_label":"Coffee","subcategory":"Cafe","source_type":"OpenStreetMap amenity=cafe","min_zoom":11.6,"priority":1},"geometry":{"type":"Point","coordinates":[-0.0287055,51.4066344]}},{"type":"Feature","properties":{"name":"flavours","category":"coffee","category_label":"Coffee","subcategory":"Cafe","source_type":"OpenStreetMap amenity=cafe","min_zoom":11.6,"priority":1},"geometry":{"type":"Point","coordinates":[-0.1319987,51.5580251]}},{"type":"Feature","properties":{"name":"Caf\u00e9 Euro","category":"coffee","category_label":"Coffee","subcategory":"Cafe","source_type":"OpenStreetMap amenity=cafe","min_zoom":11.6,"priority":1},"geometry":{"type":"Point","coordinates":[-0.1135166,51.5539633]}},{"type":"Feature","properties":{"name":"Barbican Kitchen","category":"coffee","category_label":"Coffee","subcategory":"Cafe","source_type":"OpenStreetMap amenity=cafe","min_zoom":11.6,"priority":1},"geometry":{"type":"Point","coordinates":[-0.093295,51.5195292]}},{"type":"Feature","properties":{"name":"Rheidol Rooms","category":"coffee","category_label":"Coffee","subcategory":"Cafe","source_type":"OpenStreetMap amenity=cafe","min_zoom":11.6,"priority":1},"geometry":{"type":"Point","coordinates":[-0.0986195,51.5348494]}},{"type":"Feature","properties":{"name":"Costa","category":"coffee","category_label":"Coffee","subcategory":"Cafe","source_type":"OpenStreetMap amenity=cafe","min_zoom":11.6,"priority":1},"geometry":{"type":"Point","coordinates":[-0.1911448,51.5478543]}},{"type":"Feature","properties":{"name":"Starbucks","category":"coffee","category_label":"Coffee","subcategory":"Cafe","source_type":"OpenStreetMap amenity=cafe","min_zoom":11.6,"priority":1},"geometry":{"type":"Point","coordinates":[-0.1911542,51.5478058]}},{"type":"Feature","properties":{"name":"Granary Thai Cafe","category":"coffee","category_label":"Coffee","subcategory":"Cafe","source_type":"OpenStreetMap amenity=cafe","min_zoom":11.6,"priority":1},"geometry":{"type":"Point","coordinates":[-0.1145975,51.5702682]}},{"type":"Feature","properties":{"name":"The Blue Owl","category":"coffee","category_label":"Coffee","subcategory":"Cafe","source_type":"OpenStreetMap amenity=cafe","min_zoom":11.6,"priority":1},"geometry":{"type":"Point","coordinates":[-0.1139742,51.5699774]}},{"type":"Feature","properties":{"name":"Olive Bakery","category":"coffee","category_label":"Coffee","subcategory":"Cafe","source_type":"OpenStreetMap amenity=cafe","min_zoom":11.6,"priority":1},"geometry":{"type":"Point","coordinates":[-0.1112441,51.5687211]}},{"type":"Feature","properties":{"name":"Sandscape","category":"coffee","category_label":"Coffee","subcategory":"Cafe","source_type":"OpenStreetMap amenity=cafe","min_zoom":11.6,"priority":1},"geometry":{"type":"Point","coordinates":[-0.1111755,51.5686864]}},{"type":"Feature","properties":{"name":"The Coffee Hut","category":"coffee","category_label":"Coffee","subcategory":"Cafe","source_type":"OpenStreetMap amenity=cafe","min_zoom":11.6,"priority":1},"geometry":{"type":"Point","coordinates":[-0.0944736,51.6637739]}},{"type":"Feature","properties":{"name":"Purcha","category":"coffee","category_label":"Coffee","subcategory":"Cafe","source_type":"OpenStreetMap amenity=cafe","min_zoom":11.6,"priority":1},"geometry":{"type":"Point","coordinates":[-0.1286937,51.5128913]}},{"type":"Feature","properties":{"name":"Snack Bar & Caf\u00e9","category":"coffee","category_label":"Coffee","subcategory":"Cafe","source_type":"OpenStreetMap amenity=cafe","min_zoom":11.6,"priority":1},"geometry":{"type":"Point","coordinates":[-0.1294674,51.5143608]}},{"type":"Feature","properties":{"name":"Blank Street Coffee","category":"coffee","category_label":"Coffee","subcategory":"Cafe","source_type":"OpenStreetMap amenity=cafe","min_zoom":11.6,"priority":1},"geometry":{"type":"Point","coordinates":[-0.129944,51.5153653]}},{"type":"Feature","properties":{"name":"Pedros Cafe & Restaurant","category":"coffee","category_label":"Coffee","subcategory":"Cafe","source_type":"OpenStreetMap amenity=cafe","min_zoom":11.6,"priority":1},"geometry":{"type":"Point","coordinates":[-0.2159586,51.5570402]}},{"type":"Feature","properties":{"name":"Costa","category":"coffee","category_label":"Coffee","subcategory":"Cafe","source_type":"OpenStreetMap amenity=cafe","min_zoom":11.6,"priority":1},"geometry":{"type":"Point","coordinates":[-0.2154952,51.5566554]}},{"type":"Feature","properties":{"name":"Broadway Cafe Restaurant","category":"coffee","category_label":"Coffee","subcategory":"Cafe","source_type":"OpenStreetMap amenity=cafe","min_zoom":11.6,"priority":1},"geometry":{"type":"Point","coordinates":[-0.2136999,51.555567]}},{"type":"Feature","properties":{"name":"Caf\u00e9 Margoum","category":"coffee","category_label":"Coffee","subcategory":"Cafe","source_type":"OpenStreetMap amenity=cafe","min_zoom":11.6,"priority":1},"geometry":{"type":"Point","coordinates":[-0.2133416,51.5553007]}},{"type":"Feature","properties":{"name":"Nur Cafe","category":"coffee","category_label":"Coffee","subcategory":"Cafe","source_type":"OpenStreetMap amenity=cafe","min_zoom":11.6,"priority":1},"geometry":{"type":"Point","coordinates":[-0.2122005,51.5542779]}},{"type":"Feature","properties":{"name":"Cafe Guzel","category":"coffee","category_label":"Coffee","subcategory":"Cafe","source_type":"OpenStreetMap amenity=cafe","min_zoom":11.6,"priority":1},"geometry":{"type":"Point","coordinates":[-0.2117082,51.5533653]}},{"type":"Feature","properties":{"name":"Momtaz Shisha Cafe","category":"coffee","category_label":"Coffee","subcategory":"Cafe","source_type":"OpenStreetMap amenity=cafe","min_zoom":11.6,"priority":1},"geometry":{"type":"Point","coordinates":[-0.2110769,51.5532454]}},{"type":"Feature","properties":{"name":"Pimlico BBQ and Cafe","category":"coffee","category_label":"Coffee","subcategory":"Cafe","source_type":"OpenStreetMap amenity=cafe","min_zoom":11.6,"priority":1},"geometry":{"type":"Point","coordinates":[-0.1352027,51.4898192]}},{"type":"Feature","properties":{"name":"Andy\u2019s Cafe","category":"coffee","category_label":"Coffee","subcategory":"Cafe","source_type":"OpenStreetMap amenity=cafe","min_zoom":11.6,"priority":1},"geometry":{"type":"Point","coordinates":[-0.0600452,51.4768606]}},{"type":"Feature","properties":{"name":"Jamrock Caf\u00e9","category":"coffee","category_label":"Coffee","subcategory":"Cafe","source_type":"OpenStreetMap amenity=cafe","min_zoom":11.6,"priority":1},"geometry":{"type":"Point","coordinates":[-0.0602426,51.4768178]}},{"type":"Feature","properties":{"name":"Ilderton Cafe","category":"coffee","category_label":"Coffee","subcategory":"Cafe","source_type":"OpenStreetMap amenity=cafe","min_zoom":11.6,"priority":1},"geometry":{"type":"Point","coordinates":[-0.0535307,51.4837989]}},{"type":"Feature","properties":{"name":"Costa","category":"coffee","category_label":"Coffee","subcategory":"Cafe","source_type":"OpenStreetMap amenity=cafe","min_zoom":11.6,"priority":1},"geometry":{"type":"Point","coordinates":[0.0151641,51.4056331]}},{"type":"Feature","properties":{"name":"Cuppa Chaii","category":"coffee","category_label":"Coffee","subcategory":"Cafe","source_type":"OpenStreetMap amenity=cafe","min_zoom":11.6,"priority":1},"geometry":{"type":"Point","coordinates":[0.0149474,51.4036697]}},{"type":"Feature","properties":{"name":"Stonehenge Cafe","category":"coffee","category_label":"Coffee","subcategory":"Cafe","source_type":"OpenStreetMap amenity=cafe","min_zoom":11.6,"priority":1},"geometry":{"type":"Point","coordinates":[0.0149408,51.4054013]}},{"type":"Feature","properties":{"name":"Black Sheep Coffee","category":"coffee","category_label":"Coffee","subcategory":"Cafe","source_type":"OpenStreetMap amenity=cafe","min_zoom":11.6,"priority":1},"geometry":{"type":"Point","coordinates":[0.0154597,51.4031442]}},{"type":"Feature","properties":{"name":"the light","category":"coffee","category_label":"Coffee","subcategory":"Cafe","source_type":"OpenStreetMap amenity=cafe","min_zoom":11.6,"priority":1},"geometry":{"type":"Point","coordinates":[0.0149778,51.4021307]}},{"type":"Feature","properties":{"name":"Bad Moon Cafe","category":"coffee","category_label":"Coffee","subcategory":"Cafe","source_type":"OpenStreetMap amenity=cafe","min_zoom":11.6,"priority":1},"geometry":{"type":"Point","coordinates":[-0.0883479,51.4966026]}},{"type":"Feature","properties":{"name":"Coffee-Uni","category":"coffee","category_label":"Coffee","subcategory":"Cafe","source_type":"OpenStreetMap amenity=cafe","min_zoom":11.6,"priority":1},"geometry":{"type":"Point","coordinates":[-0.1192818,51.530747]}},{"type":"Feature","properties":{"name":"Costa","category":"coffee","category_label":"Coffee","subcategory":"Cafe","source_type":"OpenStreetMap amenity=cafe","min_zoom":11.6,"priority":1},"geometry":{"type":"Point","coordinates":[-0.1222953,51.5319837]}},{"type":"Feature","properties":{"name":"Cafe Express","category":"coffee","category_label":"Coffee","subcategory":"Cafe","source_type":"OpenStreetMap amenity=cafe","min_zoom":11.6,"priority":1},"geometry":{"type":"Point","coordinates":[-0.1218822,51.5365629]}},{"type":"Feature","properties":{"name":"Venezia Cafe","category":"coffee","category_label":"Coffee","subcategory":"Cafe","source_type":"OpenStreetMap amenity=cafe","min_zoom":11.6,"priority":1},"geometry":{"type":"Point","coordinates":[-0.1218949,51.5367306]}},{"type":"Feature","properties":{"name":"Blank Street Coffee","category":"coffee","category_label":"Coffee","subcategory":"Cafe","source_type":"OpenStreetMap amenity=cafe","min_zoom":11.6,"priority":1},"geometry":{"type":"Point","coordinates":[-0.1221137,51.5308959]}},{"type":"Feature","properties":{"name":"Sunrise Cafe","category":"coffee","category_label":"Coffee","subcategory":"Cafe","source_type":"OpenStreetMap amenity=cafe","min_zoom":11.6,"priority":1},"geometry":{"type":"Point","coordinates":[-0.1190561,51.5334016]}},{"type":"Feature","properties":{"name":"Costa","category":"coffee","category_label":"Coffee","subcategory":"Cafe","source_type":"OpenStreetMap amenity=cafe","min_zoom":11.6,"priority":1},"geometry":{"type":"Point","coordinates":[-0.0976654,51.5765301]}},{"type":"Feature","properties":{"name":"Aux Pains de Papy","category":"coffee","category_label":"Coffee","subcategory":"Cafe","source_type":"OpenStreetMap amenity=cafe","min_zoom":11.6,"priority":1},"geometry":{"type":"Point","coordinates":[-0.1203346,51.529372]}},{"type":"Feature","properties":{"name":"Cappadocia","category":"coffee","category_label":"Coffee","subcategory":"Cafe","source_type":"OpenStreetMap amenity=cafe","min_zoom":11.6,"priority":1},"geometry":{"type":"Point","coordinates":[-0.1205585,51.5296591]}},{"type":"Feature","properties":{"name":"Cafe Plaka","category":"coffee","category_label":"Coffee","subcategory":"Cafe","source_type":"OpenStreetMap amenity=cafe","min_zoom":11.6,"priority":1},"geometry":{"type":"Point","coordinates":[-0.1211104,51.5302672]}},{"type":"Feature","properties":{"name":"Caff\u00e8 Nero","category":"coffee","category_label":"Coffee","subcategory":"Cafe","source_type":"OpenStreetMap amenity=cafe","min_zoom":11.6,"priority":1},"geometry":{"type":"Point","coordinates":[-0.1080315,51.5026883]}},{"type":"Feature","properties":{"name":"TomTom Coffee House","category":"coffee","category_label":"Coffee","subcategory":"Cafe","source_type":"OpenStreetMap amenity=cafe","min_zoom":11.6,"priority":1},"geometry":{"type":"Point","coordinates":[-0.1503154,51.4934413]}},{"type":"Feature","properties":{"name":"The Black Penny","category":"coffee","category_label":"Coffee","subcategory":"Cafe","source_type":"OpenStreetMap amenity=cafe","min_zoom":11.6,"priority":1},"geometry":{"type":"Point","coordinates":[-0.1580309,51.4916626]}},{"type":"Feature","properties":{"name":"Hiland","category":"coffee","category_label":"Coffee","subcategory":"Cafe","source_type":"OpenStreetMap amenity=cafe","min_zoom":11.6,"priority":1},"geometry":{"type":"Point","coordinates":[-0.0344133,51.5320877]}},{"type":"Feature","properties":{"name":"Coffee by Real Eating Co","category":"coffee","category_label":"Coffee","subcategory":"Cafe","source_type":"OpenStreetMap amenity=cafe","min_zoom":11.6,"priority":1},"geometry":{"type":"Point","coordinates":[-0.1613428,51.4909415]}},{"type":"Feature","properties":{"name":"Costa","category":"coffee","category_label":"Coffee","subcategory":"Cafe","source_type":"OpenStreetMap amenity=cafe","min_zoom":11.6,"priority":1},"geometry":{"type":"Point","coordinates":[0.2177878,51.5627213]}},{"type":"Feature","properties":{"name":"Coffee by Real Eating Co","category":"coffee","category_label":"Coffee","subcategory":"Cafe","source_type":"OpenStreetMap amenity=cafe","min_zoom":11.6,"priority":1},"geometry":{"type":"Point","coordinates":[-0.1596019,51.5142471]}},{"type":"Feature","properties":{"name":"Starbucks","category":"coffee","category_label":"Coffee","subcategory":"Cafe","source_type":"OpenStreetMap amenity=cafe","min_zoom":11.6,"priority":1},"geometry":{"type":"Point","coordinates":[-0.1391473,51.5102976]}},{"type":"Feature","properties":{"name":"Morris\u2019s","category":"coffee","category_label":"Coffee","subcategory":"Cafe","source_type":"OpenStreetMap amenity=cafe","min_zoom":11.6,"priority":1},"geometry":{"type":"Point","coordinates":[-0.1421362,51.5106844]}},{"type":"Feature","properties":{"name":"Maria's","category":"coffee","category_label":"Coffee","subcategory":"Cafe","source_type":"OpenStreetMap amenity=cafe","min_zoom":11.6,"priority":1},"geometry":{"type":"Point","coordinates":[-0.0277575,51.4070212]}},{"type":"Feature","properties":{"name":"Le Traiteur","category":"coffee","category_label":"Coffee","subcategory":"Cafe","source_type":"OpenStreetMap amenity=cafe","min_zoom":11.6,"priority":1},"geometry":{"type":"Point","coordinates":[-0.0253662,51.4094612]}},{"type":"Feature","properties":{"name":"Nkora","category":"coffee","category_label":"Coffee","subcategory":"Cafe","source_type":"OpenStreetMap amenity=cafe","min_zoom":11.6,"priority":1},"geometry":{"type":"Point","coordinates":[-0.1413145,51.5112419]}},{"type":"Feature","properties":{"name":"Shoki Shakes","category":"coffee","category_label":"Coffee","subcategory":"Cafe","source_type":"OpenStreetMap amenity=cafe","min_zoom":11.6,"priority":1},"geometry":{"type":"Point","coordinates":[-0.2229654,51.5898027]}},{"type":"Feature","properties":{"name":"Tonys Cafe","category":"coffee","category_label":"Coffee","subcategory":"Cafe","source_type":"OpenStreetMap amenity=cafe","min_zoom":11.6,"priority":1},"geometry":{"type":"Point","coordinates":[-0.2230978,51.5900442]}},{"type":"Feature","properties":{"name":"MunCHizz","category":"coffee","category_label":"Coffee","subcategory":"Cafe","source_type":"OpenStreetMap amenity=cafe","min_zoom":11.6,"priority":1},"geometry":{"type":"Point","coordinates":[-0.2232265,51.5900509]}},{"type":"Feature","properties":{"name":"Acton Park Cafe","category":"coffee","category_label":"Coffee","subcategory":"Cafe","source_type":"OpenStreetMap amenity=cafe","min_zoom":11.6,"priority":1},"geometry":{"type":"Point","coordinates":[-0.2601834,51.5084004]}},{"type":"Feature","properties":{"name":"Cafe Blossom","category":"coffee","category_label":"Coffee","subcategory":"Cafe","source_type":"OpenStreetMap amenity=cafe","min_zoom":11.6,"priority":1},"geometry":{"type":"Point","coordinates":[-0.1118266,51.6015731]}},{"type":"Feature","properties":{"name":"London","category":"coffee","category_label":"Coffee","subcategory":"Cafe","source_type":"OpenStreetMap amenity=cafe","min_zoom":11.6,"priority":1},"geometry":{"type":"Point","coordinates":[-0.1117815,51.6014736]}},{"type":"Feature","properties":{"name":"Nest Caf\u00e9","category":"coffee","category_label":"Coffee","subcategory":"Cafe","source_type":"OpenStreetMap amenity=cafe","min_zoom":11.6,"priority":1},"geometry":{"type":"Point","coordinates":[-0.1102767,51.5979425]}},{"type":"Feature","properties":{"name":"Deliciously Ella","category":"coffee","category_label":"Coffee","subcategory":"Cafe","source_type":"OpenStreetMap amenity=cafe","min_zoom":11.6,"priority":1},"geometry":{"type":"Point","coordinates":[-0.1501507,51.5133351]}},{"type":"Feature","properties":{"name":"H.R. Higgins","category":"coffee","category_label":"Coffee","subcategory":"Cafe","source_type":"OpenStreetMap amenity=cafe","min_zoom":11.6,"priority":1},"geometry":{"type":"Point","coordinates":[-0.1506616,51.5130973]}},{"type":"Feature","properties":{"name":"The Broca","category":"coffee","category_label":"Coffee","subcategory":"Cafe","source_type":"OpenStreetMap amenity=cafe","min_zoom":11.6,"priority":1},"geometry":{"type":"Point","coordinates":[-0.0367765,51.4646226]}},{"type":"Feature","properties":{"name":"Holybella","category":"coffee","category_label":"Coffee","subcategory":"Cafe","source_type":"OpenStreetMap amenity=cafe","min_zoom":11.6,"priority":1},"geometry":{"type":"Point","coordinates":[-0.1471222,51.5996939]}},{"type":"Feature","properties":{"name":"Fran's Tea Room","category":"coffee","category_label":"Coffee","subcategory":"Cafe","source_type":"OpenStreetMap amenity=cafe","min_zoom":11.6,"priority":1},"geometry":{"type":"Point","coordinates":[-0.482381,51.5653998]}},{"type":"Feature","properties":{"name":"Candy Crush Desserts","category":"coffee","category_label":"Coffee","subcategory":"Cafe","source_type":"OpenStreetMap amenity=cafe","min_zoom":11.6,"priority":1},"geometry":{"type":"Point","coordinates":[0.0186562,51.5203041]}},{"type":"Feature","properties":{"name":"Brera","category":"coffee","category_label":"Coffee","subcategory":"Cafe","source_type":"OpenStreetMap amenity=cafe","min_zoom":11.6,"priority":1},"geometry":{"type":"Point","coordinates":[-0.0221906,51.5051285]}},{"type":"Feature","properties":{"name":"Claudio's","category":"coffee","category_label":"Coffee","subcategory":"Cafe","source_type":"OpenStreetMap amenity=cafe","min_zoom":11.6,"priority":1},"geometry":{"type":"Point","coordinates":[-0.0820271,51.5117851]}},{"type":"Feature","properties":{"name":"Cardinals of Mayfair","category":"coffee","category_label":"Coffee","subcategory":"Cafe","source_type":"OpenStreetMap amenity=cafe","min_zoom":11.6,"priority":1},"geometry":{"type":"Point","coordinates":[-0.1560993,51.5129814]}},{"type":"Feature","properties":{"name":"Workman Cafe","category":"coffee","category_label":"Coffee","subcategory":"Cafe","source_type":"OpenStreetMap amenity=cafe","min_zoom":11.6,"priority":1},"geometry":{"type":"Point","coordinates":[-0.0893173,51.5001761]}},{"type":"Feature","properties":{"name":"Best of Bermondsey","category":"coffee","category_label":"Coffee","subcategory":"Cafe","source_type":"OpenStreetMap amenity=cafe","min_zoom":11.6,"priority":1},"geometry":{"type":"Point","coordinates":[-0.0770437,51.495317]}},{"type":"Feature","properties":{"name":"Embassy Cafe","category":"coffee","category_label":"Coffee","subcategory":"Cafe","source_type":"OpenStreetMap amenity=cafe","min_zoom":11.6,"priority":1},"geometry":{"type":"Point","coordinates":[-0.0788668,51.4959452]}},{"type":"Feature","properties":{"name":"Tas-Ty Snacks","category":"coffee","category_label":"Coffee","subcategory":"Cafe","source_type":"OpenStreetMap amenity=cafe","min_zoom":11.6,"priority":1},"geometry":{"type":"Point","coordinates":[-0.0806743,51.4965369]}},{"type":"Feature","properties":{"name":"Casablanca Cafe / Alauddin Sweets","category":"coffee","category_label":"Coffee","subcategory":"Cafe","source_type":"OpenStreetMap amenity=cafe","min_zoom":11.6,"priority":1},"geometry":{"type":"Point","coordinates":[-0.0665909,51.5172487]}},{"type":"Feature","properties":{"name":"Sacred Cafe","category":"coffee","category_label":"Coffee","subcategory":"Cafe","source_type":"OpenStreetMap amenity=cafe","min_zoom":11.6,"priority":1},"geometry":{"type":"Point","coordinates":[-0.1140186,51.5511032]}},{"type":"Feature","properties":{"name":"Marmalade","category":"coffee","category_label":"Coffee","subcategory":"Cafe","source_type":"OpenStreetMap amenity=cafe","min_zoom":11.6,"priority":1},"geometry":{"type":"Point","coordinates":[-0.0717022,51.5987536]}},{"type":"Feature","properties":{"name":"Caf\u00e9 1","category":"coffee","category_label":"Coffee","subcategory":"Cafe","source_type":"OpenStreetMap amenity=cafe","min_zoom":11.6,"priority":1},"geometry":{"type":"Point","coordinates":[-0.2702225,51.3330118]}},{"type":"Feature","properties":{"name":"Costa","category":"coffee","category_label":"Coffee","subcategory":"Cafe","source_type":"OpenStreetMap amenity=cafe","min_zoom":11.6,"priority":1},"geometry":{"type":"Point","coordinates":[-0.2680316,51.3319662]}},{"type":"Feature","properties":{"name":"Cobb\u2019s Corner Cafe","category":"coffee","category_label":"Coffee","subcategory":"Cafe","source_type":"OpenStreetMap amenity=cafe","min_zoom":11.6,"priority":1},"geometry":{"type":"Point","coordinates":[-0.0559198,51.4267636]}},{"type":"Feature","properties":{"name":"Cafe House","category":"coffee","category_label":"Coffee","subcategory":"Cafe","source_type":"OpenStreetMap amenity=cafe","min_zoom":11.6,"priority":1},"geometry":{"type":"Point","coordinates":[-0.0964813,51.4898338]}},{"type":"Feature","properties":{"name":"Ranya Cafe","category":"coffee","category_label":"Coffee","subcategory":"Cafe","source_type":"OpenStreetMap amenity=cafe","min_zoom":11.6,"priority":1},"geometry":{"type":"Point","coordinates":[-0.094763,51.4863772]}},{"type":"Feature","properties":{"name":"Le Parisien","category":"coffee","category_label":"Coffee","subcategory":"Cafe","source_type":"OpenStreetMap amenity=cafe","min_zoom":11.6,"priority":1},"geometry":{"type":"Point","coordinates":[0.0085377,51.5684526]}},{"type":"Feature","properties":{"name":"Simply Java Coffee Lounge","category":"coffee","category_label":"Coffee","subcategory":"Cafe","source_type":"OpenStreetMap amenity=cafe","min_zoom":11.6,"priority":1},"geometry":{"type":"Point","coordinates":[-0.153983,51.2937222]}},{"type":"Feature","properties":{"name":"Manor Gardens Cafe","category":"coffee","category_label":"Coffee","subcategory":"Cafe","source_type":"OpenStreetMap amenity=cafe","min_zoom":11.6,"priority":1},"geometry":{"type":"Point","coordinates":[-0.1198616,51.5613204]}},{"type":"Feature","properties":{"name":"Enjoy Cafe","category":"coffee","category_label":"Coffee","subcategory":"Cafe","source_type":"OpenStreetMap amenity=cafe","min_zoom":11.6,"priority":1},"geometry":{"type":"Point","coordinates":[-0.0726743,51.5666235]}},{"type":"Feature","properties":{"name":"Starbucks","category":"coffee","category_label":"Coffee","subcategory":"Cafe","source_type":"OpenStreetMap amenity=cafe","min_zoom":11.6,"priority":1},"geometry":{"type":"Point","coordinates":[-0.1235909,51.4856774]}},{"type":"Feature","properties":{"name":"Caff\u00e8 Nero","category":"coffee","category_label":"Coffee","subcategory":"Cafe","source_type":"OpenStreetMap amenity=cafe","min_zoom":11.6,"priority":1},"geometry":{"type":"Point","coordinates":[-0.2237089,51.4932526]}},{"type":"Feature","properties":{"name":"The Espresso Room","category":"coffee","category_label":"Coffee","subcategory":"Cafe","source_type":"OpenStreetMap amenity=cafe","min_zoom":11.6,"priority":1},"geometry":{"type":"Point","coordinates":[-0.1199724,51.5218751]}},{"type":"Feature","properties":{"name":"Caff\u00e8 Nero","category":"coffee","category_label":"Coffee","subcategory":"Cafe","source_type":"OpenStreetMap amenity=cafe","min_zoom":11.6,"priority":1},"geometry":{"type":"Point","coordinates":[-0.1940465,51.5150674]}},{"type":"Feature","properties":{"name":"T4 Tea For U","category":"coffee","category_label":"Coffee","subcategory":"Cafe","source_type":"OpenStreetMap amenity=cafe","min_zoom":11.6,"priority":1},"geometry":{"type":"Point","coordinates":[-0.1708231,51.518437]}},{"type":"Feature","properties":{"name":"Costa","category":"coffee","category_label":"Coffee","subcategory":"Cafe","source_type":"OpenStreetMap amenity=cafe","min_zoom":11.6,"priority":1},"geometry":{"type":"Point","coordinates":[-0.1638511,51.5158815]}},{"type":"Feature","properties":{"name":"Thai Duck Deli","category":"coffee","category_label":"Coffee","subcategory":"Cafe","source_type":"OpenStreetMap amenity=cafe","min_zoom":11.6,"priority":1},"geometry":{"type":"Point","coordinates":[-0.1046394,51.4366401]}},{"type":"Feature","properties":{"name":"Sorrento","category":"coffee","category_label":"Coffee","subcategory":"Cafe","source_type":"OpenStreetMap amenity=cafe","min_zoom":11.6,"priority":1},"geometry":{"type":"Point","coordinates":[-0.103872,51.4338129]}},{"type":"Feature","properties":{"name":"Martil","category":"coffee","category_label":"Coffee","subcategory":"Cafe","source_type":"OpenStreetMap amenity=cafe","min_zoom":11.6,"priority":1},"geometry":{"type":"Point","coordinates":[-0.1050968,51.4365775]}},{"type":"Feature","properties":{"name":"The Electric Cafe","category":"coffee","category_label":"Coffee","subcategory":"Cafe","source_type":"OpenStreetMap amenity=cafe","min_zoom":11.6,"priority":1},"geometry":{"type":"Point","coordinates":[-0.1055431,51.4372465]}},{"type":"Feature","properties":{"name":"Costa","category":"coffee","category_label":"Coffee","subcategory":"Cafe","source_type":"OpenStreetMap amenity=cafe","min_zoom":11.6,"priority":1},"geometry":{"type":"Point","coordinates":[-0.1909421,51.6978462]}},{"type":"Feature","properties":{"name":"Titanic Cafe","category":"coffee","category_label":"Coffee","subcategory":"Cafe","source_type":"OpenStreetMap amenity=cafe","min_zoom":11.6,"priority":1},"geometry":{"type":"Point","coordinates":[-0.0681933,51.5966835]}},{"type":"Feature","properties":{"name":"Costa","category":"coffee","category_label":"Coffee","subcategory":"Cafe","source_type":"OpenStreetMap amenity=cafe","min_zoom":11.6,"priority":1},"geometry":{"type":"Point","coordinates":[-0.0691479,51.5953223]}},{"type":"Feature","properties":{"name":"Munch Box","category":"coffee","category_label":"Coffee","subcategory":"Cafe","source_type":"OpenStreetMap amenity=cafe","min_zoom":11.6,"priority":1},"geometry":{"type":"Point","coordinates":[-0.0704043,51.5883423]}},{"type":"Feature","properties":{"name":"Tradicia","category":"coffee","category_label":"Coffee","subcategory":"Cafe","source_type":"OpenStreetMap amenity=cafe","min_zoom":11.6,"priority":1},"geometry":{"type":"Point","coordinates":[-0.070331,51.5908807]}},{"type":"Feature","properties":{"name":"VV Cafe","category":"coffee","category_label":"Coffee","subcategory":"Cafe","source_type":"OpenStreetMap amenity=cafe","min_zoom":11.6,"priority":1},"geometry":{"type":"Point","coordinates":[-0.2095248,51.4694002]}},{"type":"Feature","properties":{"name":"Fred and Doug's","category":"coffee","category_label":"Coffee","subcategory":"Cafe","source_type":"OpenStreetMap amenity=cafe","min_zoom":11.6,"priority":1},"geometry":{"type":"Point","coordinates":[0.1110297,51.6984968]}},{"type":"Feature","properties":{"name":"Costa","category":"coffee","category_label":"Coffee","subcategory":"Cafe","source_type":"OpenStreetMap amenity=cafe","min_zoom":11.6,"priority":1},"geometry":{"type":"Point","coordinates":[0.111018,51.6991269]}},{"type":"Feature","properties":{"name":"Arthur's Cafe","category":"coffee","category_label":"Coffee","subcategory":"Cafe","source_type":"OpenStreetMap amenity=cafe","min_zoom":11.6,"priority":1},"geometry":{"type":"Point","coordinates":[-0.2196276,51.5341825]}},{"type":"Feature","properties":{"name":"Starbucks","category":"coffee","category_label":"Coffee","subcategory":"Cafe","source_type":"OpenStreetMap amenity=cafe","min_zoom":11.6,"priority":1},"geometry":{"type":"Point","coordinates":[-0.1875856,51.511682]}},{"type":"Feature","properties":{"name":"Caff\u00e8 Nero","category":"coffee","category_label":"Coffee","subcategory":"Cafe","source_type":"OpenStreetMap amenity=cafe","min_zoom":11.6,"priority":1},"geometry":{"type":"Point","coordinates":[-0.0977564,51.5149324]}},{"type":"Feature","properties":{"name":"Caff\u00e8 Nero","category":"coffee","category_label":"Coffee","subcategory":"Cafe","source_type":"OpenStreetMap amenity=cafe","min_zoom":11.6,"priority":1},"geometry":{"type":"Point","coordinates":[-0.0906,51.506748]}},{"type":"Feature","properties":{"name":"Damascan Kitchen","category":"coffee","category_label":"Coffee","subcategory":"Cafe","source_type":"OpenStreetMap amenity=cafe","min_zoom":11.6,"priority":1},"geometry":{"type":"Point","coordinates":[-0.0950357,51.5038704]}},{"type":"Feature","properties":{"name":"Costa","category":"coffee","category_label":"Coffee","subcategory":"Cafe","source_type":"OpenStreetMap amenity=cafe","min_zoom":11.6,"priority":1},"geometry":{"type":"Point","coordinates":[-0.063297,51.587608]}},{"type":"Feature","properties":{"name":"Busy Bee Cafe","category":"coffee","category_label":"Coffee","subcategory":"Cafe","source_type":"OpenStreetMap amenity=cafe","min_zoom":11.6,"priority":1},"geometry":{"type":"Point","coordinates":[-0.1785967,51.6505443]}},{"type":"Feature","properties":{"name":"Caff\u00e8 Nero","category":"coffee","category_label":"Coffee","subcategory":"Cafe","source_type":"OpenStreetMap amenity=cafe","min_zoom":11.6,"priority":1},"geometry":{"type":"Point","coordinates":[-0.1246162,51.5011196]}},{"type":"Feature","properties":{"name":"Starbucks","category":"coffee","category_label":"Coffee","subcategory":"Cafe","source_type":"OpenStreetMap amenity=cafe","min_zoom":11.6,"priority":1},"geometry":{"type":"Point","coordinates":[-0.1178012,51.5020386]}},{"type":"Feature","properties":{"name":"Art Cafe","category":"coffee","category_label":"Coffee","subcategory":"Cafe","source_type":"OpenStreetMap amenity=cafe","min_zoom":11.6,"priority":1},"geometry":{"type":"Point","coordinates":[-0.1035282,51.4974337]}},{"type":"Feature","properties":{"name":"La Forchetta","category":"coffee","category_label":"Coffee","subcategory":"Cafe","source_type":"OpenStreetMap amenity=cafe","min_zoom":11.6,"priority":1},"geometry":{"type":"Point","coordinates":[-0.1075476,51.5193252]}},{"type":"Feature","properties":{"name":"Bicafe","category":"coffee","category_label":"Coffee","subcategory":"Cafe","source_type":"OpenStreetMap amenity=cafe","min_zoom":11.6,"priority":1},"geometry":{"type":"Point","coordinates":[-0.1071526,51.5198485]}},{"type":"Feature","properties":{"name":"Tide Tables","category":"coffee","category_label":"Coffee","subcategory":"Cafe","source_type":"OpenStreetMap amenity=cafe","min_zoom":11.6,"priority":1},"geometry":{"type":"Point","coordinates":[-0.3062458,51.4577868]}},{"type":"Feature","properties":{"name":"Ockham Bites","category":"coffee","category_label":"Coffee","subcategory":"Cafe","source_type":"OpenStreetMap amenity=cafe","min_zoom":11.6,"priority":1},"geometry":{"type":"Point","coordinates":[-0.4538573,51.3171494]}},{"type":"Feature","properties":{"name":"Costa","category":"coffee","category_label":"Coffee","subcategory":"Cafe","source_type":"OpenStreetMap amenity=cafe","min_zoom":11.6,"priority":1},"geometry":{"type":"Point","coordinates":[-0.1244199,51.52996]}},{"type":"Feature","properties":{"name":"Caff\u00e8 Nero","category":"coffee","category_label":"Coffee","subcategory":"Cafe","source_type":"OpenStreetMap amenity=cafe","min_zoom":11.6,"priority":1},"geometry":{"type":"Point","coordinates":[-0.1283651,51.5072772]}},{"type":"Feature","properties":{"name":"Starbucks","category":"coffee","category_label":"Coffee","subcategory":"Cafe","source_type":"OpenStreetMap amenity=cafe","min_zoom":11.6,"priority":1},"geometry":{"type":"Point","coordinates":[-0.1762672,51.5158451]}},{"type":"Feature","properties":{"name":"Paperback Coffee & Books","category":"coffee","category_label":"Coffee","subcategory":"Cafe","source_type":"OpenStreetMap amenity=cafe","min_zoom":11.6,"priority":1},"geometry":{"type":"Point","coordinates":[-0.3051965,51.5049527]}},{"type":"Feature","properties":{"name":"Red Box","category":"coffee","category_label":"Coffee","subcategory":"Cafe","source_type":"OpenStreetMap amenity=cafe","min_zoom":11.6,"priority":1},"geometry":{"type":"Point","coordinates":[-0.3048787,51.5059828]}},{"type":"Feature","properties":{"name":"Panopolis","category":"coffee","category_label":"Coffee","subcategory":"Cafe","source_type":"OpenStreetMap amenity=cafe","min_zoom":11.6,"priority":1},"geometry":{"type":"Point","coordinates":[-0.1767977,51.5165862]}},{"type":"Feature","properties":{"name":"The Step Inn cafe","category":"coffee","category_label":"Coffee","subcategory":"Cafe","source_type":"OpenStreetMap amenity=cafe","min_zoom":11.6,"priority":1},"geometry":{"type":"Point","coordinates":[0.1738077,51.3967974]}},{"type":"Feature","properties":{"name":"Costa","category":"coffee","category_label":"Coffee","subcategory":"Cafe","source_type":"OpenStreetMap amenity=cafe","min_zoom":11.6,"priority":1},"geometry":{"type":"Point","coordinates":[-0.1228872,51.5072579]}},{"type":"Feature","properties":{"name":"Starbucks","category":"coffee","category_label":"Coffee","subcategory":"Cafe","source_type":"OpenStreetMap amenity=cafe","min_zoom":11.6,"priority":1},"geometry":{"type":"Point","coordinates":[-0.122338,51.507051]}},{"type":"Feature","properties":{"name":"The Pasty Shop","category":"coffee","category_label":"Coffee","subcategory":"Cafe","source_type":"OpenStreetMap amenity=cafe","min_zoom":11.6,"priority":1},"geometry":{"type":"Point","coordinates":[-0.1245247,51.5082148]}},{"type":"Feature","properties":{"name":"Costa","category":"coffee","category_label":"Coffee","subcategory":"Cafe","source_type":"OpenStreetMap amenity=cafe","min_zoom":11.6,"priority":1},"geometry":{"type":"Point","coordinates":[-0.1252987,51.5080331]}},{"type":"Feature","properties":{"name":"Sista Barista","category":"coffee","category_label":"Coffee","subcategory":"Cafe","source_type":"OpenStreetMap amenity=cafe","min_zoom":11.6,"priority":1},"geometry":{"type":"Point","coordinates":[-0.1141846,51.499562]}},{"type":"Feature","properties":{"name":"Roni's Cafe","category":"coffee","category_label":"Coffee","subcategory":"Cafe","source_type":"OpenStreetMap amenity=cafe","min_zoom":11.6,"priority":1},"geometry":{"type":"Point","coordinates":[-0.1035302,51.5224662]}},{"type":"Feature","properties":{"name":"Knockbox Coffee","category":"coffee","category_label":"Coffee","subcategory":"Cafe","source_type":"OpenStreetMap amenity=cafe","min_zoom":11.6,"priority":1},"geometry":{"type":"Point","coordinates":[-0.1034208,51.5224819]}},{"type":"Feature","properties":{"name":"Costa","category":"coffee","category_label":"Coffee","subcategory":"Cafe","source_type":"OpenStreetMap amenity=cafe","min_zoom":11.6,"priority":1},"geometry":{"type":"Point","coordinates":[-0.1407765,51.5148343]}},{"type":"Feature","properties":{"name":"More","category":"coffee","category_label":"Coffee","subcategory":"Cafe","source_type":"OpenStreetMap amenity=cafe","min_zoom":11.6,"priority":1},"geometry":{"type":"Point","coordinates":[-0.473864,51.5334104]}},{"type":"Feature","properties":{"name":"Suzette","category":"coffee","category_label":"Coffee","subcategory":"Cafe","source_type":"OpenStreetMap amenity=cafe","min_zoom":11.6,"priority":1},"geometry":{"type":"Point","coordinates":[-0.1745798,51.4748458]}},{"type":"Feature","properties":{"name":"La Cucina Di Mamma","category":"coffee","category_label":"Coffee","subcategory":"Cafe","source_type":"OpenStreetMap amenity=cafe","min_zoom":11.6,"priority":1},"geometry":{"type":"Point","coordinates":[-0.11761,51.502499]}},{"type":"Feature","properties":{"name":"Costa","category":"coffee","category_label":"Coffee","subcategory":"Cafe","source_type":"OpenStreetMap amenity=cafe","min_zoom":11.6,"priority":1},"geometry":{"type":"Point","coordinates":[-0.1267675,51.5075005]}},{"type":"Feature","properties":{"name":"Tokoton","category":"coffee","category_label":"Coffee","subcategory":"Cafe","source_type":"OpenStreetMap amenity=cafe","min_zoom":11.6,"priority":1},"geometry":{"type":"Point","coordinates":[-0.0884898,51.4948912]}},{"type":"Feature","properties":{"name":"Bibi's","category":"coffee","category_label":"Coffee","subcategory":"Cafe","source_type":"OpenStreetMap amenity=cafe","min_zoom":11.6,"priority":1},"geometry":{"type":"Point","coordinates":[-0.1366962,51.511417]}},{"type":"Feature","properties":{"name":"Caffee Concerto","category":"coffee","category_label":"Coffee","subcategory":"Cafe","source_type":"OpenStreetMap amenity=cafe","min_zoom":11.6,"priority":1},"geometry":{"type":"Point","coordinates":[-0.133266,51.509704]}},{"type":"Feature","properties":{"name":"Caff\u00e8 Nero","category":"coffee","category_label":"Coffee","subcategory":"Cafe","source_type":"OpenStreetMap amenity=cafe","min_zoom":11.6,"priority":1},"geometry":{"type":"Point","coordinates":[-0.1323526,51.5094715]}},{"type":"Feature","properties":{"name":"AMT Coffee","category":"coffee","category_label":"Coffee","subcategory":"Cafe","source_type":"OpenStreetMap amenity=cafe","min_zoom":11.6,"priority":1},"geometry":{"type":"Point","coordinates":[-0.0926573,51.3763847]}},{"type":"Feature","properties":{"name":"West Cornwall Pasties","category":"coffee","category_label":"Coffee","subcategory":"Cafe","source_type":"OpenStreetMap amenity=cafe","min_zoom":11.6,"priority":1},"geometry":{"type":"Point","coordinates":[-0.0926978,51.3761131]}},{"type":"Feature","properties":{"name":"Brad's Coffee Bar","category":"coffee","category_label":"Coffee","subcategory":"Cafe","source_type":"OpenStreetMap amenity=cafe","min_zoom":11.6,"priority":1},"geometry":{"type":"Point","coordinates":[-0.0184983,51.58351]}},{"type":"Feature","properties":{"name":"Charlie and The Chocolate Factory","category":"coffee","category_label":"Coffee","subcategory":"Cafe","source_type":"OpenStreetMap amenity=cafe","min_zoom":11.6,"priority":1},"geometry":{"type":"Point","coordinates":[-0.1192659,51.5115316]}},{"type":"Feature","properties":{"name":"403 Cafe","category":"coffee","category_label":"Coffee","subcategory":"Cafe","source_type":"OpenStreetMap amenity=cafe","min_zoom":11.6,"priority":1},"geometry":{"type":"Point","coordinates":[-0.2762353,51.4921878]}},{"type":"Feature","properties":{"name":"La Bottega","category":"coffee","category_label":"Coffee","subcategory":"Cafe","source_type":"OpenStreetMap amenity=cafe","min_zoom":11.6,"priority":1},"geometry":{"type":"Point","coordinates":[-0.127203,51.513513]}},{"type":"Feature","properties":{"name":"Caff\u00e8 Nero","category":"coffee","category_label":"Coffee","subcategory":"Cafe","source_type":"OpenStreetMap amenity=cafe","min_zoom":11.6,"priority":1},"geometry":{"type":"Point","coordinates":[-0.1276746,51.5114893]}},{"type":"Feature","properties":{"name":"Starbucks","category":"coffee","category_label":"Coffee","subcategory":"Cafe","source_type":"OpenStreetMap amenity=cafe","min_zoom":11.6,"priority":1},"geometry":{"type":"Point","coordinates":[-0.104019,51.5125955]}},{"type":"Feature","properties":{"name":"Costa","category":"coffee","category_label":"Coffee","subcategory":"Cafe","source_type":"OpenStreetMap amenity=cafe","min_zoom":11.6,"priority":1},"geometry":{"type":"Point","coordinates":[0.1120757,51.392925]}},{"type":"Feature","properties":{"name":"Speedgate Farm","category":"coffee","category_label":"Coffee","subcategory":"Cafe","source_type":"OpenStreetMap amenity=cafe","min_zoom":11.6,"priority":1},"geometry":{"type":"Point","coordinates":[0.2662753,51.3701715]}},{"type":"Feature","properties":{"name":"David's Deli","category":"coffee","category_label":"Coffee","subcategory":"Cafe","source_type":"OpenStreetMap amenity=cafe","min_zoom":11.6,"priority":1},"geometry":{"type":"Point","coordinates":[-0.193129,51.552099]}},{"type":"Feature","properties":{"name":"Cafe Mano","category":"coffee","category_label":"Coffee","subcategory":"Cafe","source_type":"OpenStreetMap amenity=cafe","min_zoom":11.6,"priority":1},"geometry":{"type":"Point","coordinates":[-0.108788,51.5210599]}},{"type":"Feature","properties":{"name":"Tuffo's Place","category":"coffee","category_label":"Coffee","subcategory":"Cafe","source_type":"OpenStreetMap amenity=cafe","min_zoom":11.6,"priority":1},"geometry":{"type":"Point","coordinates":[-0.1088769,51.521416]}},{"type":"Feature","properties":{"name":"Duncan Terrace Cafe","category":"coffee","category_label":"Coffee","subcategory":"Cafe","source_type":"OpenStreetMap amenity=cafe","min_zoom":11.6,"priority":1},"geometry":{"type":"Point","coordinates":[-0.1046939,51.5317157]}},{"type":"Feature","properties":{"name":"Candy Cafe","category":"coffee","category_label":"Coffee","subcategory":"Cafe","source_type":"OpenStreetMap amenity=cafe","min_zoom":11.6,"priority":1},"geometry":{"type":"Point","coordinates":[-0.1313596,51.5118731]}},{"type":"Feature","properties":{"name":"Honeymoon Dessert","category":"coffee","category_label":"Coffee","subcategory":"Cafe","source_type":"OpenStreetMap amenity=cafe","min_zoom":11.6,"priority":1},"geometry":{"type":"Point","coordinates":[-0.1331849,51.5115305]}},{"type":"Feature","properties":{"name":"Costa","category":"coffee","category_label":"Coffee","subcategory":"Cafe","source_type":"OpenStreetMap amenity=cafe","min_zoom":11.6,"priority":1},"geometry":{"type":"Point","coordinates":[-0.2269607,51.5057172]}},{"type":"Feature","properties":{"name":"Starbucks","category":"coffee","category_label":"Coffee","subcategory":"Cafe","source_type":"OpenStreetMap amenity=cafe","min_zoom":11.6,"priority":1},"geometry":{"type":"Point","coordinates":[-0.3017132,51.410876]}},{"type":"Feature","properties":{"name":"Local Hero","category":"coffee","category_label":"Coffee","subcategory":"Cafe","source_type":"OpenStreetMap amenity=cafe","min_zoom":11.6,"priority":1},"geometry":{"type":"Point","coordinates":[-0.3066407,51.4107537]}},{"type":"Feature","properties":{"name":"My Tea Shop","category":"coffee","category_label":"Coffee","subcategory":"Cafe","source_type":"OpenStreetMap amenity=cafe","min_zoom":11.6,"priority":1},"geometry":{"type":"Point","coordinates":[-0.087685,51.505967]}},{"type":"Feature","properties":{"name":"Cafe Jax","category":"coffee","category_label":"Coffee","subcategory":"Cafe","source_type":"OpenStreetMap amenity=cafe","min_zoom":11.6,"priority":1},"geometry":{"type":"Point","coordinates":[-0.2985736,51.4106297]}},{"type":"Feature","properties":{"name":"Candid Cafe","category":"coffee","category_label":"Coffee","subcategory":"Cafe","source_type":"OpenStreetMap amenity=cafe","min_zoom":11.6,"priority":1},"geometry":{"type":"Point","coordinates":[-0.105164,51.532188]}},{"type":"Feature","properties":{"name":"Bloomsbury Caf\u00e9","category":"coffee","category_label":"Coffee","subcategory":"Cafe","source_type":"OpenStreetMap amenity=cafe","min_zoom":11.6,"priority":1},"geometry":{"type":"Point","coordinates":[-0.1327573,51.5252191]}},{"type":"Feature","properties":{"name":"Starbucks","category":"coffee","category_label":"Coffee","subcategory":"Cafe","source_type":"OpenStreetMap amenity=cafe","min_zoom":11.6,"priority":1},"geometry":{"type":"Point","coordinates":[-0.1264865,51.5322247]}},{"type":"Feature","properties":{"name":"Benugo","category":"coffee","category_label":"Coffee","subcategory":"Cafe","source_type":"OpenStreetMap amenity=cafe","min_zoom":11.6,"priority":1},"geometry":{"type":"Point","coordinates":[-0.1263153,51.5319049]}},{"type":"Feature","properties":{"name":"Markus Coffee Co Ltd","category":"coffee","category_label":"Coffee","subcategory":"Cafe","source_type":"OpenStreetMap amenity=cafe","min_zoom":11.6,"priority":1},"geometry":{"type":"Point","coordinates":[-0.1649754,51.5145564]}},{"type":"Feature","properties":{"name":"Stuzzico...","category":"coffee","category_label":"Coffee","subcategory":"Cafe","source_type":"OpenStreetMap amenity=cafe","min_zoom":11.6,"priority":1},"geometry":{"type":"Point","coordinates":[-0.1665827,51.5146604]}},{"type":"Feature","properties":{"name":"Caff\u00e8 Nero","category":"coffee","category_label":"Coffee","subcategory":"Cafe","source_type":"OpenStreetMap amenity=cafe","min_zoom":11.6,"priority":1},"geometry":{"type":"Point","coordinates":[-0.1164931,51.5208569]}},{"type":"Feature","properties":{"name":"Prufrock Coffee","category":"coffee","category_label":"Coffee","subcategory":"Cafe","source_type":"OpenStreetMap amenity=cafe","min_zoom":11.6,"priority":1},"geometry":{"type":"Point","coordinates":[-0.0781397,51.5261237]}},{"type":"Feature","properties":{"name":"Mighty Bite","category":"coffee","category_label":"Coffee","subcategory":"Cafe","source_type":"OpenStreetMap amenity=cafe","min_zoom":11.6,"priority":1},"geometry":{"type":"Point","coordinates":[-0.0226198,51.5278082]}},{"type":"Feature","properties":{"name":"Social Bite","category":"coffee","category_label":"Coffee","subcategory":"Cafe","source_type":"OpenStreetMap amenity=cafe","min_zoom":11.6,"priority":1},"geometry":{"type":"Point","coordinates":[-0.1254965,51.5087508]}},{"type":"Feature","properties":{"name":"The Cat & Cucumber","category":"coffee","category_label":"Coffee","subcategory":"Cafe","source_type":"OpenStreetMap amenity=cafe","min_zoom":11.6,"priority":1},"geometry":{"type":"Point","coordinates":[-0.07786,51.5013164]}},{"type":"Feature","properties":{"name":"Snacks 'n' things","category":"coffee","category_label":"Coffee","subcategory":"Cafe","source_type":"OpenStreetMap amenity=cafe","min_zoom":11.6,"priority":1},"geometry":{"type":"Point","coordinates":[-0.072633,51.5633341]}},{"type":"Feature","properties":{"name":"Warbler Cafe","category":"coffee","category_label":"Coffee","subcategory":"Cafe","source_type":"OpenStreetMap amenity=cafe","min_zoom":11.6,"priority":1},"geometry":{"type":"Point","coordinates":[-0.072287,51.5632082]}},{"type":"Feature","properties":{"name":"Cafe Amore","category":"coffee","category_label":"Coffee","subcategory":"Cafe","source_type":"OpenStreetMap amenity=cafe","min_zoom":11.6,"priority":1},"geometry":{"type":"Point","coordinates":[-0.096525,51.48997]}},{"type":"Feature","properties":{"name":"Builders Cafe","category":"coffee","category_label":"Coffee","subcategory":"Cafe","source_type":"OpenStreetMap amenity=cafe","min_zoom":11.6,"priority":1},"geometry":{"type":"Point","coordinates":[-0.1000252,51.4928238]}},{"type":"Feature","properties":{"name":"Espresso & Shakes","category":"coffee","category_label":"Coffee","subcategory":"Cafe","source_type":"OpenStreetMap amenity=cafe","min_zoom":11.6,"priority":1},"geometry":{"type":"Point","coordinates":[-0.075097,51.5514789]}},{"type":"Feature","properties":{"name":"Bodrum Cafe Bar","category":"coffee","category_label":"Coffee","subcategory":"Cafe","source_type":"OpenStreetMap amenity=cafe","min_zoom":11.6,"priority":1},"geometry":{"type":"Point","coordinates":[-0.0744578,51.558947]}},{"type":"Feature","properties":{"name":"Costa","category":"coffee","category_label":"Coffee","subcategory":"Cafe","source_type":"OpenStreetMap amenity=cafe","min_zoom":11.6,"priority":1},"geometry":{"type":"Point","coordinates":[-0.0740564,51.5606514]}},{"type":"Feature","properties":{"name":"Joseph's cafe & restaurant","category":"coffee","category_label":"Coffee","subcategory":"Cafe","source_type":"OpenStreetMap amenity=cafe","min_zoom":11.6,"priority":1},"geometry":{"type":"Point","coordinates":[-0.0740418,51.5608315]}},{"type":"Feature","properties":{"name":"Espressamente","category":"coffee","category_label":"Coffee","subcategory":"Cafe","source_type":"OpenStreetMap amenity=cafe","min_zoom":11.6,"priority":1},"geometry":{"type":"Point","coordinates":[-0.116915,51.500624]}},{"type":"Feature","properties":{"name":"The Borough Barista","category":"coffee","category_label":"Coffee","subcategory":"Cafe","source_type":"OpenStreetMap amenity=cafe","min_zoom":11.6,"priority":1},"geometry":{"type":"Point","coordinates":[-0.1321275,51.5084346]}},{"type":"Feature","properties":{"name":"Harris + Hoole","category":"coffee","category_label":"Coffee","subcategory":"Cafe","source_type":"OpenStreetMap amenity=cafe","min_zoom":11.6,"priority":1},"geometry":{"type":"Point","coordinates":[-0.124036,51.5787074]}},{"type":"Feature","properties":{"name":"Costa Coffee","category":"coffee","category_label":"Coffee","subcategory":"Cafe","source_type":"OpenStreetMap amenity=cafe","min_zoom":11.6,"priority":1},"geometry":{"type":"Point","coordinates":[-0.0740464,51.5066813]}},{"type":"Feature","properties":{"name":"Blank Street Coffee","category":"coffee","category_label":"Coffee","subcategory":"Cafe","source_type":"OpenStreetMap amenity=cafe","min_zoom":11.6,"priority":1},"geometry":{"type":"Point","coordinates":[-0.135626,51.5195479]}},{"type":"Feature","properties":{"name":"Cafe Below","category":"coffee","category_label":"Coffee","subcategory":"Cafe","source_type":"OpenStreetMap amenity=cafe","min_zoom":11.6,"priority":1},"geometry":{"type":"Point","coordinates":[-0.0935309,51.5138693]}},{"type":"Feature","properties":{"name":"Lizzie's Cucina","category":"coffee","category_label":"Coffee","subcategory":"Cafe","source_type":"OpenStreetMap amenity=cafe","min_zoom":11.6,"priority":1},"geometry":{"type":"Point","coordinates":[-0.1344589,51.6469539]}},{"type":"Feature","properties":{"name":"Starbucks","category":"coffee","category_label":"Coffee","subcategory":"Cafe","source_type":"OpenStreetMap amenity=cafe","min_zoom":11.6,"priority":1},"geometry":{"type":"Point","coordinates":[-0.0751203,51.5115013]}},{"type":"Feature","properties":{"name":"Oasis","category":"coffee","category_label":"Coffee","subcategory":"Cafe","source_type":"OpenStreetMap amenity=cafe","min_zoom":11.6,"priority":1},"geometry":{"type":"Point","coordinates":[-0.074603,51.510474]}},{"type":"Feature","properties":{"name":"Caff\u00e8 Nero","category":"coffee","category_label":"Coffee","subcategory":"Cafe","source_type":"OpenStreetMap amenity=cafe","min_zoom":11.6,"priority":1},"geometry":{"type":"Point","coordinates":[-0.079927,51.511976]}},{"type":"Feature","properties":{"name":"Pinner Cafe","category":"coffee","category_label":"Coffee","subcategory":"Cafe","source_type":"OpenStreetMap amenity=cafe","min_zoom":11.6,"priority":1},"geometry":{"type":"Point","coordinates":[-0.1296186,51.5294047]}},{"type":"Feature","properties":{"name":"Fresh","category":"coffee","category_label":"Coffee","subcategory":"Cafe","source_type":"OpenStreetMap amenity=cafe","min_zoom":11.6,"priority":1},"geometry":{"type":"Point","coordinates":[-0.0685281,51.5150998]}},{"type":"Feature","properties":{"name":"Caffeina","category":"coffee","category_label":"Coffee","subcategory":"Cafe","source_type":"OpenStreetMap amenity=cafe","min_zoom":11.6,"priority":1},"geometry":{"type":"Point","coordinates":[-0.0774102,51.5117445]}},{"type":"Feature","properties":{"name":"St James Caffe","category":"coffee","category_label":"Coffee","subcategory":"Cafe","source_type":"OpenStreetMap amenity=cafe","min_zoom":11.6,"priority":1},"geometry":{"type":"Point","coordinates":[-0.1359706,51.5060928]}},{"type":"Feature","properties":{"name":"Redemption Roasters","category":"coffee","category_label":"Coffee","subcategory":"Cafe","source_type":"OpenStreetMap amenity=cafe","min_zoom":11.6,"priority":1},"geometry":{"type":"Point","coordinates":[-0.136869,51.5084676]}},{"type":"Feature","properties":{"name":"Delish","category":"coffee","category_label":"Coffee","subcategory":"Cafe","source_type":"OpenStreetMap amenity=cafe","min_zoom":11.6,"priority":1},"geometry":{"type":"Point","coordinates":[0.0453016,51.4003252]}},{"type":"Feature","properties":{"name":"GAIL's","category":"coffee","category_label":"Coffee","subcategory":"Cafe","source_type":"OpenStreetMap amenity=cafe","min_zoom":11.6,"priority":1},"geometry":{"type":"Point","coordinates":[-0.286063,51.4773102]}},{"type":"Feature","properties":{"name":"Presto Cafe","category":"coffee","category_label":"Coffee","subcategory":"Cafe","source_type":"OpenStreetMap amenity=cafe","min_zoom":11.6,"priority":1},"geometry":{"type":"Point","coordinates":[-0.084128,51.494997]}},{"type":"Feature","properties":{"name":"Royal Delight","category":"coffee","category_label":"Coffee","subcategory":"Cafe","source_type":"OpenStreetMap amenity=cafe","min_zoom":11.6,"priority":1},"geometry":{"type":"Point","coordinates":[-0.083377,51.495478]}},{"type":"Feature","properties":{"name":"Leone","category":"coffee","category_label":"Coffee","subcategory":"Cafe","source_type":"OpenStreetMap amenity=cafe","min_zoom":11.6,"priority":1},"geometry":{"type":"Point","coordinates":[-0.083087,51.495661]}},{"type":"Feature","properties":{"name":"Panopolis","category":"coffee","category_label":"Coffee","subcategory":"Cafe","source_type":"OpenStreetMap amenity=cafe","min_zoom":11.6,"priority":1},"geometry":{"type":"Point","coordinates":[-0.1336117,51.5282488]}},{"type":"Feature","properties":{"name":"Starbucks","category":"coffee","category_label":"Coffee","subcategory":"Cafe","source_type":"OpenStreetMap amenity=cafe","min_zoom":11.6,"priority":1},"geometry":{"type":"Point","coordinates":[-0.0792217,51.5084656]}},{"type":"Feature","properties":{"name":"Caff\u00e8 Nero","category":"coffee","category_label":"Coffee","subcategory":"Cafe","source_type":"OpenStreetMap amenity=cafe","min_zoom":11.6,"priority":1},"geometry":{"type":"Point","coordinates":[-0.1459816,51.5069374]}},{"type":"Feature","properties":{"name":"Costa","category":"coffee","category_label":"Coffee","subcategory":"Cafe","source_type":"OpenStreetMap amenity=cafe","min_zoom":11.6,"priority":1},"geometry":{"type":"Point","coordinates":[-0.1406487,51.5158824]}},{"type":"Feature","properties":{"name":"Joe & The Juice","category":"coffee","category_label":"Coffee","subcategory":"Cafe","source_type":"OpenStreetMap amenity=cafe","min_zoom":11.6,"priority":1},"geometry":{"type":"Point","coordinates":[-0.1407239,51.5162655]}},{"type":"Feature","properties":{"name":"Dulche","category":"coffee","category_label":"Coffee","subcategory":"Cafe","source_type":"OpenStreetMap amenity=cafe","min_zoom":11.6,"priority":1},"geometry":{"type":"Point","coordinates":[-0.1409473,51.5164718]}},{"type":"Feature","properties":{"name":"GT Corner","category":"coffee","category_label":"Coffee","subcategory":"Cafe","source_type":"OpenStreetMap amenity=cafe","min_zoom":11.6,"priority":1},"geometry":{"type":"Point","coordinates":[-0.141725,51.5182443]}},{"type":"Feature","properties":{"name":"Carter's","category":"coffee","category_label":"Coffee","subcategory":"Cafe","source_type":"OpenStreetMap amenity=cafe","min_zoom":11.6,"priority":1},"geometry":{"type":"Point","coordinates":[-0.0794907,51.5097893]}},{"type":"Feature","properties":{"name":"Cafe Koha","category":"coffee","category_label":"Coffee","subcategory":"Cafe","source_type":"OpenStreetMap amenity=cafe","min_zoom":11.6,"priority":1},"geometry":{"type":"Point","coordinates":[-0.1278096,51.5112822]}},{"type":"Feature","properties":{"name":"Cafe Deco","category":"coffee","category_label":"Coffee","subcategory":"Cafe","source_type":"OpenStreetMap amenity=cafe","min_zoom":11.6,"priority":1},"geometry":{"type":"Point","coordinates":[-0.1839574,51.4977754]}},{"type":"Feature","properties":{"name":"Terrace Cafe & Restaurant","category":"coffee","category_label":"Coffee","subcategory":"Cafe","source_type":"OpenStreetMap amenity=cafe","min_zoom":11.6,"priority":1},"geometry":{"type":"Point","coordinates":[0.016828,51.4061941]}},{"type":"Feature","properties":{"name":"Chislehurst Caves","category":"coffee","category_label":"Coffee","subcategory":"Cafe","source_type":"OpenStreetMap amenity=cafe","min_zoom":11.6,"priority":1},"geometry":{"type":"Point","coordinates":[0.0579532,51.4072541]}},{"type":"Feature","properties":{"name":"Camden Food Co","category":"coffee","category_label":"Coffee","subcategory":"Cafe","source_type":"OpenStreetMap amenity=cafe","min_zoom":11.6,"priority":1},"geometry":{"type":"Point","coordinates":[-0.077017,51.511228]}},{"type":"Feature","properties":{"name":"Dillons","category":"coffee","category_label":"Coffee","subcategory":"Cafe","source_type":"OpenStreetMap amenity=cafe","min_zoom":11.6,"priority":1},"geometry":{"type":"Point","coordinates":[-0.1322463,51.5223949]}},{"type":"Feature","properties":{"name":"Engineering Cafe","category":"coffee","category_label":"Coffee","subcategory":"Cafe","source_type":"OpenStreetMap amenity=cafe","min_zoom":11.6,"priority":1},"geometry":{"type":"Point","coordinates":[-0.132082,51.5228705]}},{"type":"Feature","properties":{"name":"Weighbridge Cafe","category":"coffee","category_label":"Coffee","subcategory":"Cafe","source_type":"OpenStreetMap amenity=cafe","min_zoom":11.6,"priority":1},"geometry":{"type":"Point","coordinates":[-0.0561688,51.5915916]}},{"type":"Feature","properties":{"name":"Starbucks","category":"coffee","category_label":"Coffee","subcategory":"Cafe","source_type":"OpenStreetMap amenity=cafe","min_zoom":11.6,"priority":1},"geometry":{"type":"Point","coordinates":[-0.182426,51.4945555]}},{"type":"Feature","properties":{"name":"Starbucks","category":"coffee","category_label":"Coffee","subcategory":"Cafe","source_type":"OpenStreetMap amenity=cafe","min_zoom":11.6,"priority":1},"geometry":{"type":"Point","coordinates":[-0.090075,51.5126035]}},{"type":"Feature","properties":{"name":"apostrophe","category":"coffee","category_label":"Coffee","subcategory":"Cafe","source_type":"OpenStreetMap amenity=cafe","min_zoom":11.6,"priority":1},"geometry":{"type":"Point","coordinates":[-0.1171093,51.5180533]}},{"type":"Feature","properties":{"name":"Darwin Court Cafe","category":"coffee","category_label":"Coffee","subcategory":"Cafe","source_type":"OpenStreetMap amenity=cafe","min_zoom":11.6,"priority":1},"geometry":{"type":"Point","coordinates":[-0.087267,51.491734]}},{"type":"Feature","properties":{"name":"San Marino","category":"coffee","category_label":"Coffee","subcategory":"Cafe","source_type":"OpenStreetMap amenity=cafe","min_zoom":11.6,"priority":1},"geometry":{"type":"Point","coordinates":[-0.1144562,51.4635424]}},{"type":"Feature","properties":{"name":"De Vine","category":"coffee","category_label":"Coffee","subcategory":"Cafe","source_type":"OpenStreetMap amenity=cafe","min_zoom":11.6,"priority":1},"geometry":{"type":"Point","coordinates":[-0.0756382,51.5110877]}},{"type":"Feature","properties":{"name":"Burrito Joe","category":"coffee","category_label":"Coffee","subcategory":"Cafe","source_type":"OpenStreetMap amenity=cafe","min_zoom":11.6,"priority":1},"geometry":{"type":"Point","coordinates":[-0.0755982,51.510903]}},{"type":"Feature","properties":{"name":"Caff\u00e8 Nero","category":"coffee","category_label":"Coffee","subcategory":"Cafe","source_type":"OpenStreetMap amenity=cafe","min_zoom":11.6,"priority":1},"geometry":{"type":"Point","coordinates":[-0.0799419,51.5152475]}},{"type":"Feature","properties":{"name":"Costa","category":"coffee","category_label":"Coffee","subcategory":"Cafe","source_type":"OpenStreetMap amenity=cafe","min_zoom":11.6,"priority":1},"geometry":{"type":"Point","coordinates":[-0.092428,51.5024863]}},{"type":"Feature","properties":{"name":"Print Room Caf\u00e9","category":"coffee","category_label":"Coffee","subcategory":"Cafe","source_type":"OpenStreetMap amenity=cafe","min_zoom":11.6,"priority":1},"geometry":{"type":"Point","coordinates":[-0.133231,51.5241273]}},{"type":"Feature","properties":{"name":"Farm Girl","category":"coffee","category_label":"Coffee","subcategory":"Cafe","source_type":"OpenStreetMap amenity=cafe","min_zoom":11.6,"priority":1},"geometry":{"type":"Point","coordinates":[-0.2007618,51.5120395]}},{"type":"Feature","properties":{"name":"Angela's Cafe","category":"coffee","category_label":"Coffee","subcategory":"Cafe","source_type":"OpenStreetMap amenity=cafe","min_zoom":11.6,"priority":1},